City_ID,City,Lat,Lng,Max Temp,Humidity,Cloudiness,Wind Speed,Country,Date
0,Kudahuvadhoo,2.6708,72.8944,81.75,75,12,9.78,MV,1697587582
1,Port-Aux-Francais,-49.35,70.2167,36.1,73,96,13.91,TF,1697587582
2,Jamestown,42.097,-79.2353,48.02,87,100,5.75,US,1697587245
3,Grabouw,-34.1515,19.0151,59.4,90,10,5.41,ZA,1697587583
4,At-Bashi,41.1702,75.8106,40.71,64,70,5.97,KG,1697587583
5,Bayanhongor,46.7167,100.1167,26.8,34,81,2.06,MN,1697587583
6,Uturoa,-16.7333,-151.4333,79.02,82,79,15.35,PF,1697587584
7,Blackmans Bay,-43.0167,147.3167,64.53,49,40,1.01,AU,1697587401
8,Dudinka,69.4058,86.1778,31.68,98,100,5.99,RU,1697587584
9,Kodiak,57.79,-152.4072,47.71,87,100,11.5,US,1697587585
10,Sinabang,2.4803,96.3801,78.24,85,99,6.85,ID,1697587585
11,Bilibino,68.0546,166.4372,4.96,96,100,3.51,RU,1697587585
12,Kharp,66.8014,65.8081,34.99,100,100,3.47,RU,1697587585
13,Talnakh,69.4865,88.3972,29.21,96,100,16.98,RU,1697587586
14,Bubaque,11.2833,-15.8333,81.73,79,38,8.61,GW,1697587586
15,Vanimo,-2.6741,141.3028,82.76,79,58,4.16,PG,1697587587
16,Waitangi,-43.9535,-176.5597,49.75,68,43,14.61,NZ,1697587587
17,Albany,42.6001,-73.9662,53.92,82,70,4.56,US,1697587347
18,Saldanha,-33.0117,17.9442,59.05,92,2,11.72,ZA,1697587588
19,Yaren,-0.5472,166.916,82.38,80,100,18.12,NR,1697587588
20,Myeik,12.4333,98.6,77.04,90,99,4.36,MM,1697587588
21,Edinburgh Of The Seven Seas,-37.0676,-12.3116,54.86,75,100,12.41,SH,1697587589
22,Lhasa,29.65,91.1,37.02,72,68,4.74,CN,1697587589
23,Puerto Colombia,10.9878,-74.9547,84.29,74,40,9.57,CO,1697587589
24,Saipan,15.1355,145.701,84.9,84,0,13.8,MP,1697587590
25,Sandnessjoen,66.0217,12.6316,28.92,65,64,14.18,NO,1697587590
26,Polyarnyy,69.1989,33.4478,35.6,74,98,11.63,RU,1697587590
27,Rudnya,54.947,31.0934,43.12,84,95,16.2,RU,1697587591
28,Bethel,41.3712,-73.414,56.64,81,71,3.29,US,1697587333
29,Puerto Baquerizo Moreno,-0.9,-89.6,77.99,83,20,8.05,EC,1697587361
30,Colonia,50.9333,6.95,46.29,79,0,5.75,DE,1697587476
31,Puerto Natales,-51.7236,-72.4875,42.64,92,100,3.51,CL,1697587592
32,Itoman,26.1247,127.6694,77.4,53,20,6.91,JP,1697587592
33,Tynda,55.1667,124.7167,26.82,96,100,3.76,RU,1697587593
34,Avarua,-21.2078,-159.775,77.05,61,70,16.11,CK,1697587593
35,San Angelo,31.4638,-100.437,79.02,26,0,6.91,US,1697587593
36,Nishinoomote,30.7333,131.0,70.36,77,20,4.61,JP,1697587594
37,Ptolemaida,40.5147,21.6786,48.29,93,100,4.12,GR,1697587594
38,Margaret River,-33.95,115.0667,61.63,69,94,9.4,AU,1697587594
39,Yellowknife,62.456,-114.3525,36.12,100,100,8.05,CA,1697587595
40,Longyearbyen,78.2186,15.6401,22.84,58,20,8.05,SJ,1697587595
41,Coquimbo,-29.9533,-71.3436,58.73,77,75,8.05,CL,1697587548
42,Nosy Varika,-20.5833,48.5333,73.29,93,99,9.01,MG,1697587596
43,Sola,-13.8833,167.55,84.87,74,100,5.75,VU,1697587596
44,Port Mathurin,-19.6833,63.4167,74.71,80,8,8.5,MU,1697587596
45,Olonkinbyen,70.9221,-8.7187,32.83,78,100,6.33,SJ,1697587597
46,Isafjordur,66.0755,-23.124,43.86,92,98,13.15,IS,1697587597
47,Ust-Nera,64.5667,143.2,4.21,85,80,3.0,RU,1697587597
48,Ancud,-41.8697,-73.8203,49.15,85,24,3.15,CL,1697587598
49,Ilulissat,69.2167,-51.1,14.02,73,75,8.05,GL,1697587598
50,Kayangel,8.0823,134.7173,82.24,75,32,0.87,PW,1697587598
51,Boguchany,58.3814,97.4531,36.86,92,93,8.01,RU,1697587599
52,Hermanus,-34.4187,19.2345,60.28,92,2,5.44,ZA,1697587599
53,Iqaluit,63.7506,-68.5145,28.13,74,75,3.44,CA,1697587322
54,Adamstown,-25.066,-130.1015,72.3,86,100,9.46,PN,1697587599
55,Georgetown,5.4112,100.3354,80.94,95,20,3.44,MY,1697587598
56,Camana,-16.6228,-72.7111,66.63,86,52,5.17,PE,1697587600
57,Sakakah,29.9697,40.2064,69.37,34,0,7.67,SA,1697587601
58,Road Town,18.4167,-64.6167,84.29,74,40,6.91,VG,1697587601
59,Qaqortoq,60.7167,-46.0333,30.65,51,7,12.48,GL,1697587601
60,Grytviken,-54.2811,-36.5092,34.03,81,54,12.64,GS,1697587602
61,Thompson,55.7435,-97.8558,51.96,71,40,5.75,CA,1697587372
62,Punta Arenas,-53.15,-70.9167,50.11,66,100,17.02,CL,1697587602
63,Sao Felix Do Xingu,-6.6447,-51.995,85.59,38,74,0.83,BR,1697587365
64,La Ronge,55.1001,-105.2842,57.45,47,75,8.05,CA,1697587341
65,Bredasdorp,-34.5322,20.0403,57.88,93,0,2.8,ZA,1697587603
66,Udachny,66.4167,112.4,14.45,85,87,11.5,RU,1697587603
67,Ushuaia,-54.8,-68.3,43.43,84,100,10.0,AR,1697587604
68,Chillicothe,39.3331,-82.9824,55.26,75,100,0.0,US,1697587543
69,Holtville,32.8112,-115.3803,100.11,14,0,3.44,US,1697587604
70,Villa Gesell,-37.2639,-56.973,48.27,66,0,9.24,AR,1697587604
71,Ust-Tsilma,65.441,52.1498,37.62,89,100,5.99,RU,1697587605
72,San Carlos,9.6612,-68.5827,77.2,84,16,2.82,VE,1697587605
73,Nova Sintra,14.8667,-24.7167,78.08,71,0,7.65,CV,1697587605
74,Zaigrayevo,51.8336,108.2703,36.0,96,98,9.17,RU,1697587606
75,Fort St. John,56.2499,-120.8529,51.1,59,80,5.99,CA,1697587606
76,Stanley,54.868,-1.6985,49.77,90,20,6.91,GB,1697587485
77,Along,28.1667,94.7667,59.86,97,25,2.01,IN,1697587607
78,Khark,29.2614,50.3306,84.99,53,69,20.13,IR,1697587607
79,Athens,37.9795,23.7162,69.66,90,40,1.99,GR,1697587495
80,Zhanaozen,43.3,52.8,48.18,67,41,11.83,KZ,1697587607
81,Chonchi,-42.6128,-73.8092,54.61,91,61,3.11,CL,1697587339
82,Changping,40.2186,116.2197,60.44,52,82,7.31,CN,1697587608
83,Susuman,62.7833,148.1667,0.99,73,18,1.99,RU,1697587608
84,Cidade Velha,14.9167,-23.6167,81.48,72,0,8.08,CV,1697587609
85,Hawaiian Paradise Park,19.5933,-154.9731,83.71,73,0,10.36,US,1697587609
86,Kruisfontein,-34.0033,24.7314,61.95,59,0,6.46,ZA,1697587364
87,Luganville,-15.5333,167.1667,83.64,66,50,5.97,VU,1697587609
88,Attapeu,14.8,106.8333,74.01,99,100,0.65,LA,1697587610
89,Adre,13.4667,22.2,77.56,21,38,12.59,TD,1697587610
90,Tiksi,71.6872,128.8694,3.43,100,100,3.18,RU,1697587610
91,Awjilah,29.1081,21.2869,70.02,49,0,7.52,LY,1697587611
92,La Foa,-21.7108,165.8276,76.82,71,62,9.46,NC,1697587612
93,Guateque,5.0062,-73.4727,61.38,99,65,0.25,CO,1697587612
94,Enewetak,11.3474,162.3373,83.34,77,97,15.88,MH,1697587612
95,Datong,40.0936,113.2914,48.2,43,24,4.65,CN,1697587612
96,Mercedes,-34.6515,-59.4307,55.63,46,1,7.81,AR,1697587420
97,Iskateley,67.6803,53.1512,34.02,89,100,8.99,RU,1697587613
98,Manay,7.215,126.5397,82.56,75,22,2.51,PH,1697587613
99,Sitka,57.0531,-135.33,57.09,58,100,16.11,US,1697587614
100,Puerto Ayora,-0.7393,-90.3518,75.54,92,75,5.01,EC,1697587614
101,Soma,39.1855,27.6094,56.59,81,98,4.32,TR,1697587614
102,Kailua-Kona,19.6406,-155.9956,84.97,68,20,8.05,US,1697587615
103,Altai,46.3722,96.2583,27.93,35,9,3.02,MN,1697587615
104,Nuuk,64.1835,-51.7216,23.61,68,0,17.27,GL,1697587615
105,Wewak,-3.5534,143.6268,84.22,71,84,4.72,PG,1697587616
106,Thunder Bay,48.4001,-89.3168,44.8,83,47,4.18,CA,1697587606
107,Keflavik,64.0049,-22.5624,50.43,93,100,36.82,IS,1697587616
108,Kargat,55.1956,80.2811,45.23,89,26,6.62,RU,1697587617
109,Kulhudhuffushi,6.6221,73.07,82.63,74,74,6.22,MV,1697587617
110,Alice Springs,-23.7,133.8833,72.95,14,0,11.5,AU,1697587617
111,Kourou,5.1552,-52.6478,77.05,81,29,8.61,GF,1697587618
112,Pisco,-13.7,-76.2167,66.25,88,0,16.11,PE,1697587618
113,Shubarshi,48.5872,57.1869,44.02,74,83,10.78,KZ,1697587618
114,Juan Griego,11.0817,-63.9655,81.14,84,4,10.58,VE,1697587619
115,Badger,64.8,-147.5333,35.47,82,75,4.61,US,1697587619
116,Civril,38.3014,29.7386,54.09,76,68,1.66,TR,1697587619
117,Zhosaly,45.4878,64.0781,51.64,47,5,6.89,KZ,1697587620
118,Debark',13.1561,37.8981,50.86,76,72,2.48,ET,1697587620
119,Cruzeiro Do Sul,-29.5128,-51.9853,65.08,81,100,6.22,BR,1697587620
120,Australind,-33.2667,115.7167,62.51,79,100,4.63,AU,1697587620
121,Grafton,42.207,-71.6856,53.11,91,94,1.66,US,1697587527
122,Chipinge,-20.1883,32.6236,60.4,92,100,3.15,ZW,1697587621
123,Ardmore,34.1743,-97.1436,65.46,41,0,5.75,US,1697587555
124,Antsiranana,-12.2787,49.2917,73.8,83,7,11.25,MG,1697587622
125,El Triunfo,-1.9333,-79.9667,80.64,65,98,8.75,EC,1697587622
126,Invercargill,-46.4,168.35,59.02,60,87,10.0,NZ,1697587622
127,Papatowai,-46.5619,169.4708,58.93,53,75,17.34,NZ,1697587622
128,Lebu,-37.6167,-73.65,51.8,88,0,12.3,CL,1697587623
129,Frederico Westphalen,-27.3592,-53.3944,60.85,97,94,3.62,BR,1697587530
130,Fraserburgh,57.6874,-2.0184,45.12,77,100,14.23,GB,1697587623
131,Baoro,5.6667,15.9667,69.67,93,99,3.47,CF,1697587624
132,Naze,28.3667,129.4833,70.81,56,0,5.35,JP,1697587624
133,Soroca,48.1558,28.2975,42.6,60,78,2.46,MD,1697587624
134,Acajutla,13.5928,-89.8275,82.22,64,100,7.29,SV,1697587625
135,Vorgashor,67.5833,63.95,35.13,97,100,10.02,RU,1697587625
136,Remire-Montjoly,4.9167,-52.2667,77.04,88,0,0.0,GF,1697587625
137,Constitucion,-35.3333,-72.4167,52.72,74,2,1.41,CL,1697587626
138,Tortoli,39.9256,9.6572,69.3,80,98,4.92,IT,1697587626
139,Mammoth Lakes,37.6485,-118.9721,68.72,17,0,8.05,US,1697587626
140,Bodo,67.28,14.405,34.77,100,40,8.05,NO,1697587627
141,Weno,7.4515,151.8468,83.52,73,63,4.32,FM,1697587627
142,Waddan,29.1614,16.139,73.04,28,29,8.37,LY,1697587627
143,Bodden Town,19.2833,-81.25,84.2,75,75,13.8,KY,1697587627
144,Ribeira Grande,38.5167,-28.7,70.77,96,97,17.0,PT,1697587628
145,Nemuro,43.3236,145.575,55.56,66,33,18.75,JP,1697587628
146,Codrington,-38.2667,141.9667,65.46,48,2,8.72,AU,1697587629
147,Bahce,37.1972,36.5766,60.75,83,28,2.13,TR,1697587629
148,Whitehorse,60.7161,-135.0538,50.77,73,75,8.05,CA,1697587549
149,Prince Rupert,54.3161,-130.3201,53.69,87,100,26.46,CA,1697587630
150,Aleksandrov Gay,50.147,48.5704,40.5,59,1,12.19,RU,1697587630
151,Arraial Do Cabo,-22.9661,-42.0278,73.22,92,83,9.62,BR,1697587630
152,Fort Bragg,35.139,-79.006,62.91,75,100,0.0,US,1697587631
153,Puerto Carreno,6.189,-67.4859,83.25,70,78,1.54,CO,1697587631
154,New Norfolk,-42.7826,147.0587,66.7,32,45,3.24,AU,1697587631
155,Cabo San Lucas,22.8909,-109.9124,92.61,51,0,5.75,MX,1697587457
156,Changyon,38.2508,125.0961,59.59,69,96,7.76,KP,1697587632
157,Dvurechensk,56.5982,61.0953,48.69,72,39,9.78,RU,1697587632
158,Port Hedland,-20.3167,118.5667,89.65,11,0,6.91,AU,1697587632
159,Rongelap,11.1635,166.8941,82.98,76,54,12.75,MH,1697587633
160,Yuzhno-Kurilsk,44.0306,145.8556,51.37,75,65,20.4,RU,1697587633
161,Mont-Dore,-22.2833,166.5833,77.0,99,83,11.21,NC,1697587633
162,Mount Isa,-20.7333,139.5,85.77,13,0,16.11,AU,1697587633
163,Port Elizabeth,-33.918,25.5701,60.31,95,0,3.44,ZA,1697587397
164,Gadzhiyevo,69.2551,33.3362,36.03,73,99,12.53,RU,1697587634
165,Portland,45.5234,-122.6762,68.11,73,100,5.75,US,1697587330
166,Nar'Yan-Mar,67.6713,53.087,34.11,89,100,8.99,RU,1697587635
167,Floro,61.5996,5.0328,42.76,93,100,1.14,NO,1697587635
168,Goundam,16.4145,-3.6708,94.5,23,81,4.94,ML,1697587635
169,Anadyr,64.75,177.4833,21.7,73,58,15.66,RU,1697587635
170,Blagoveshchensk,50.2667,127.5333,43.41,52,20,8.95,RU,1697587636
171,Malakal,9.5334,31.6605,74.03,80,89,4.16,SS,1697587636
172,Lazaro Cardenas,17.9583,-102.2,80.19,87,97,4.41,MX,1697587630
173,Turabah,21.2141,41.6331,73.45,45,0,5.1,SA,1697587637
174,Vilyuchinsk,52.9306,158.4028,44.92,96,100,6.06,RU,1697587637
175,Palmer,42.1584,-72.3287,54.01,80,75,0.0,US,1697587598
176,Madalena,41.2162,-8.3345,63.75,96,100,14.16,PT,1697587638
177,Carauari,-4.8828,-66.8958,80.2,74,94,1.32,BR,1697587369
178,Lubango,-14.9172,13.4925,63.7,47,49,3.15,AO,1697587638
179,Magpet,7.1119,125.1133,79.92,82,28,0.54,PH,1697587638
180,Aykhal,66.0,111.5,12.07,93,97,11.01,RU,1697587639
181,Inari,68.906,27.0288,25.0,98,94,3.67,FI,1697587639
182,Vakarai,55.6035,23.8213,45.12,82,100,14.12,LT,1697587639
183,Omis,43.4447,16.6886,58.93,55,50,5.08,HR,1697587640
184,Wailua Homesteads,22.0669,-159.378,83.19,67,40,8.05,US,1697587640
185,East Ballina,-28.8667,153.5833,62.8,62,99,14.97,AU,1697587640
186,Kormilovka,55.0026,74.1028,52.59,84,7,7.23,RU,1697587640
187,Kenai,60.5544,-151.2583,51.89,57,40,5.75,US,1697587641
188,Kerikeri,-35.2268,173.9474,66.9,88,100,1.01,NZ,1697587641
189,Balqash,46.8481,74.995,47.46,49,0,12.26,KZ,1697587641
190,Williams Lake,52.1415,-122.1445,54.05,53,100,17.27,CA,1697587642
191,Ar Ruways,24.1103,52.7306,81.63,65,0,5.28,AE,1697587642
192,Belle Fourche,44.6714,-103.8522,68.34,35,29,13.31,US,1697587642
193,Moose Jaw,50.4001,-105.5344,60.46,46,36,13.35,CA,1697587642
194,Barcelos,41.5388,-8.6151,64.92,92,100,15.64,PT,1697587643
195,Mitsamiouli,-11.3847,43.2844,78.8,74,99,11.74,KM,1697587643
196,San Carlos De Bariloche,-41.1456,-71.3082,51.13,39,0,1.45,AR,1697587607
197,Saint-Philippe,-21.3585,55.7679,72.99,77,85,5.37,RE,1697587644
198,Natal,-5.795,-35.2094,79.02,73,0,11.5,BR,1697587369
199,Kargasok,59.0556,80.8572,47.97,92,26,7.0,RU,1697587644
200,Lata,40.1629,-8.3327,68.81,92,100,12.48,PT,1697587644
201,Greymouth,-42.4667,171.2,57.45,68,72,2.98,NZ,1697587405
202,Marsh Harbour,26.5412,-77.0636,75.79,56,55,7.96,BS,1697587645
203,Baise City,23.8997,106.6133,70.23,80,50,0.49,CN,1697587645
204,Kristiansund,63.1115,7.732,43.45,87,100,2.3,NO,1697587645
205,San Luis De La Loma,17.2706,-100.8939,79.65,88,100,2.75,MX,1697587646
206,Baotou,40.6522,109.8222,46.89,31,28,5.75,CN,1697587646
207,Midvagur,62.0511,-7.1939,47.23,100,100,14.97,FO,1697587646
208,Salvador,13.8333,-88.9167,81.0,81,97,3.18,SV,1697587412
209,Kupang,-10.1667,123.5833,86.58,51,20,9.22,ID,1697587647
210,Hasaki,35.7333,140.8333,68.29,58,95,8.99,JP,1697587647
211,Port Lincoln,-34.7333,135.8667,67.53,48,1,9.33,AU,1697587647
212,Aasiaat,68.7098,-52.8699,1.54,89,37,5.75,GL,1697587648
213,Grootfontein,-19.5667,18.1167,68.88,13,65,8.93,NA,1697587648
214,Dunedin,-45.8742,170.5036,62.08,44,76,3.8,NZ,1697587648
215,Lompoc,34.6391,-120.4579,81.01,74,0,18.99,US,1697587568
216,Mokhsogollokh,61.4681,128.9203,29.23,43,100,3.83,RU,1697587649
217,Lihue,21.9789,-159.3672,83.44,70,2,5.82,US,1697587358
218,Yabelo,4.8833,38.0833,61.66,83,93,4.74,ET,1697587650
219,Sao Vicente,-23.9631,-46.3919,78.98,54,100,8.01,BR,1697587650
220,Nikolayevka,53.1257,47.2041,38.84,65,57,14.97,RU,1697587650
221,Mount Gambier,-37.8333,140.7667,66.04,43,9,6.53,AU,1697587650
222,Constantia,44.1833,28.65,52.7,63,100,8.16,RO,1697587540
223,Kuusamo,65.9667,29.1833,30.24,80,75,10.36,FI,1697587651
224,Saarwellingen,49.35,6.8167,45.7,78,100,8.12,DE,1697587651
225,Moa,20.6569,-74.9403,80.91,80,32,4.25,CU,1697587652
226,Saudarkrokur,65.7461,-19.6394,41.52,88,86,10.49,IS,1697587652
227,West Island,-12.1568,96.8225,78.78,83,40,12.66,CC,1697587652
228,Kimbe,-5.5502,150.1429,88.3,63,83,3.85,PG,1697587653
229,Alofi,-19.0595,-169.9187,78.69,53,75,25.32,NU,1697587653
230,Canton,23.1167,113.25,75.15,73,100,4.27,CN,1697587543
231,Howrah,22.5892,88.3103,78.8,89,20,0.0,IN,1697587653
232,Luderitz,-26.6481,15.1594,66.09,60,1,11.18,NA,1697587654
233,Mvomero,-6.25,38.6667,74.75,90,100,1.5,TZ,1697587654
234,Porto Novo,6.4965,2.6036,75.29,88,87,1.21,BJ,1697587654
235,Ormara,25.2088,64.6357,78.53,84,5,3.38,PK,1697587655
236,Palikir - National Government Center,6.9248,158.1611,86.85,74,75,6.91,FM,1697587655
237,Carnarvon,-24.8667,113.6333,76.06,36,0,20.36,AU,1697587655
238,Tenenkou,14.4572,-4.9169,86.56,43,79,7.18,ML,1697587656
239,Tabou,4.423,-7.3528,76.59,91,31,3.24,CI,1697587656
240,Balotra,25.8333,72.2333,78.48,60,6,3.2,IN,1697587656
241,Hami,42.8,93.45,43.54,60,0,1.92,CN,1697587657
242,Nantucket,41.2835,-70.0995,55.15,84,100,3.44,US,1697587523
243,Chiras,35.4167,65.9823,37.8,94,100,4.61,AF,1697587657
244,Ndungu,-4.3667,38.05,71.2,90,100,3.94,TZ,1697587658
245,Al Fallujah,33.3538,43.7795,72.88,40,0,1.41,IQ,1697587658
246,Ghormach,35.7306,63.7826,60.53,56,65,3.65,AF,1697587658
247,Kilju,40.9642,129.3278,57.69,50,94,2.19,KP,1697587659
248,Sault Ste. Marie,46.5168,-84.3333,46.96,76,100,0.0,CA,1697587616
249,Ghanzi,-21.5667,21.7833,66.29,26,1,9.6,BW,1697587659
250,Bucerias,20.75,-105.3333,87.78,70,75,4.61,MX,1697587578
251,Guerrero Negro,27.9769,-114.0611,72.99,65,16,17.0,MX,1697587439
252,Mili,6.0815,171.735,82.92,69,53,1.77,MH,1697587660
253,Port Alfred,-33.5906,26.891,59.18,93,0,12.26,ZA,1697587660
254,Baikonur,45.6167,63.3167,51.82,41,18,6.35,KZ,1697587661
255,Bathsheba,13.2167,-59.5167,83.01,78,20,12.66,BB,1697587661
256,Tchintabaraden,15.8969,5.7985,88.12,18,99,10.33,NE,1697587661
257,Konarka,19.9,86.1167,75.6,81,42,5.32,IN,1697587661
258,Queenstown,-31.8976,26.8753,52.7,78,0,2.1,ZA,1697587434
259,Bodaybo,57.8506,114.1933,32.83,95,98,1.86,RU,1697587662
260,Pitimbu,-7.4706,-34.8086,75.79,74,67,13.27,BR,1697587662
261,Spring Creek,40.7266,-115.5859,70.81,21,0,8.66,US,1697587663
262,Ketchikan,55.3422,-131.6461,53.58,93,100,17.27,US,1697587663
263,Afonso Claudio,-20.0742,-41.1239,76.69,66,91,2.21,BR,1697587663
264,Zhigalovo,54.8097,105.1578,37.08,95,97,5.99,RU,1697587663
265,Khandyga,62.6667,135.6,21.65,73,100,1.81,RU,1697587664
266,Atafu Village,-8.5421,-172.5159,83.23,73,97,7.11,TK,1697587664
267,Igboho,8.8333,3.75,73.98,92,100,3.47,NG,1697587664
268,Ceelbuur,4.685,46.6176,79.14,80,49,13.29,SO,1697587665
269,Strathmore,51.0501,-113.3852,58.41,54,52,19.57,CA,1697587589
270,Bikenibeu Village,1.3673,173.1241,83.93,76,99,14.0,KI,1697587665
271,Bakanas,44.8081,76.2772,47.98,51,0,2.06,KZ,1697587666
272,Gallup,35.5281,-108.7426,75.04,14,0,10.36,US,1697587494
273,Uchqurghon Shahri,41.1137,72.0791,51.66,31,35,2.51,UZ,1697587666
274,Burley,42.5357,-113.7928,65.19,44,0,12.66,US,1697587667
275,Nanao,37.05,136.9667,65.26,63,12,2.82,JP,1697587667
276,Alaior,39.9303,4.1404,73.15,88,0,11.5,ES,1697587667
277,Kurtamysh,54.9103,64.4319,49.55,68,0,13.0,RU,1697587668
278,Puerto Armuelles,8.2833,-82.8667,79.09,78,100,7.0,PA,1697587369
279,Borba,-4.3878,-59.5939,83.8,55,25,2.42,BR,1697587669
280,Sao Francisco,-15.9486,-44.8644,79.72,28,4,4.56,BR,1697587669
281,Beau Vallon,-20.4189,57.6953,75.22,94,40,1.14,MU,1697587447
282,Baker City,44.7749,-117.8344,62.6,53,46,3.44,US,1697587660
283,Mount Pearl,47.5166,-52.7813,39.96,90,100,1.99,CA,1697587670
284,Mejit,10.2753,170.8646,81.54,80,91,12.5,MH,1697587670
285,Danjiangkou,32.5428,111.5086,66.92,67,57,2.75,CN,1697587670
286,Pogar,52.554,33.2591,42.03,75,37,13.04,RU,1697587670
287,Rio Grande,-32.035,-52.0986,57.31,73,55,17.0,BR,1697587671
288,North Fort Myers,26.6673,-81.8801,69.03,62,0,6.91,US,1697587543
289,Bure,10.7,37.0667,56.25,92,73,3.71,ET,1697587671
290,Kodinsk,58.6881,99.1844,35.44,97,99,4.85,RU,1697587672
291,Ola,59.5833,151.2833,28.42,42,0,12.71,RU,1697587672
292,Papao,-17.75,-149.55,83.88,81,97,17.74,PF,1697587672
293,Teruel,40.6667,-0.6667,55.71,75,44,15.46,ES,1697587672
294,Balkanabat,39.5108,54.3671,63.16,43,42,7.54,TM,1697587673
295,Anaconda,46.1285,-112.9423,54.59,36,8,7.49,US,1697587673
296,Akureyri,65.6835,-18.0878,38.59,85,95,11.52,IS,1697587673
297,El Tigre,8.8875,-64.2454,82.26,58,73,5.12,VE,1697587674
298,Extrema,-22.8547,-46.3183,66.61,95,100,2.8,BR,1697587674
299,North Bend,43.4065,-124.2243,68.23,77,0,8.05,US,1697587674
300,Hamilton,39.1834,-84.5333,53.8,75,100,6.91,US,1697587427
301,Aljezur,37.3191,-8.8033,67.42,91,78,10.69,PT,1697587675
302,Puliyur,10.6333,78.8333,78.6,89,20,2.3,IN,1697587675
303,Pacasmayo,-7.4006,-79.5714,68.92,82,26,14.14,PE,1697587676
304,Carlsbad,33.1581,-117.3506,88.43,75,0,8.05,US,1697587676
305,Vila Franca Do Campo,37.7167,-25.4333,70.21,99,70,13.69,PT,1697587676
306,Fukuecho,32.6881,128.8419,67.8,49,0,1.21,JP,1697587676
307,Verkhnevilyuysk,63.4453,120.3167,26.94,95,100,5.99,RU,1697587677
308,Hadibu,12.65,54.0333,80.78,74,2,4.65,YE,1697587677
309,Minas De Marcona,-15.2119,-75.1103,59.86,84,49,10.4,PE,1697587677
310,Sanya,18.2431,109.505,78.12,90,100,10.85,CN,1697587677
311,Caleta De Carquin,-11.0925,-77.6267,68.07,85,41,11.7,PE,1697587678
312,Krasnoturansk,54.3186,91.5639,41.23,69,100,10.0,RU,1697587678
313,Walvis Bay,-22.9575,14.5053,59.09,94,58,6.2,NA,1697587678
314,Luanda,-8.8368,13.2343,75.2,88,75,5.75,AO,1697587545
315,Castillos,-34.1667,-53.8333,48.04,83,8,8.57,UY,1697587679
316,Flying Fish Cove,-10.4217,105.6791,78.48,88,75,11.5,CX,1697587679
317,Tarko-Sale,64.9225,77.785,39.99,88,100,11.99,RU,1697587679
318,Tlahualilo De Zaragoza,26.1167,-103.45,73.58,30,1,5.99,MX,1697587680
319,Parchim,53.4263,11.8488,38.14,85,1,3.91,DE,1697587680
320,Belmonte,-15.8631,-38.8828,73.44,78,14,6.98,BR,1697587680
321,Homer,59.6425,-151.5483,51.76,88,100,8.05,US,1697587680
322,Fougamou,-1.2154,10.5838,74.16,98,88,1.72,GA,1697587681
323,Zhytkavichy,52.2168,27.8561,40.01,70,71,7.99,BY,1697587681
324,San Clemente Del Tuyu,-36.3569,-56.7235,45.99,67,0,12.1,AR,1697587681
325,Tura,25.5198,90.2201,66.74,87,0,2.51,IN,1697587682
326,Goondiwindi,-28.55,150.3167,72.72,34,0,6.22,AU,1697587682
327,Xique Xique,-10.8217,-42.7311,81.66,39,7,11.27,BR,1697587682
328,Fale Old Settlement,-9.3852,-171.2468,82.6,75,46,8.08,TK,1697587683
329,Domodedovo,55.4422,37.7583,40.17,84,75,13.42,RU,1697587684
330,Prineville,44.2999,-120.8345,74.12,30,0,3.44,US,1697587684
331,Tanout,14.9709,8.8879,85.14,21,22,8.37,NE,1697587685
332,Holualoa,19.6228,-155.9522,81.25,69,20,8.05,US,1697587685
333,Kapuskasing,49.4169,-82.4331,42.46,84,0,4.59,CA,1697587686
334,El Nido,11.1858,119.3956,83.39,79,37,14.38,PH,1697587686
335,East London,-33.0153,27.9116,62.29,79,0,16.13,ZA,1697587687
336,Laojunmiao,39.8333,97.7333,31.24,81,100,5.12,CN,1697587687
337,Tosontsengel,48.7567,98.2839,26.46,43,93,4.18,MN,1697587687
338,Sorong,-0.8833,131.25,80.44,83,39,5.57,ID,1697587688
339,Arkhangel'Sk,64.5401,40.5433,39.13,78,100,9.8,RU,1697587688
340,La Passe,45.5549,-0.8967,68.23,79,89,23.67,FR,1697587689
341,Carolina Beach,34.0352,-77.8936,61.02,58,37,0.11,US,1697587689
342,Tazacorte,28.629,-17.9293,74.37,79,40,5.99,ES,1697587689
343,Port Blair,11.6667,92.75,78.84,94,40,1.14,IN,1697587513
344,Kenora,49.8167,-94.4337,58.17,58,75,4.61,CA,1697587536
345,Chandler,33.3062,-111.8412,99.16,14,0,6.91,US,1697587690
346,Hithadhoo,-0.6,73.0833,81.03,76,11,13.31,MV,1697587690
347,Kurayoshi,35.4333,133.8167,67.8,67,0,2.28,JP,1697587691
348,Yeppoon,-23.1333,150.7333,76.78,61,100,17.45,AU,1697587594
349,Urangan,-25.3,152.9,72.68,55,29,18.16,AU,1697587691
350,Alo,7.4178,6.7371,73.58,94,95,1.25,NG,1697587692
351,Colachel,8.1667,77.25,76.03,94,100,9.01,IN,1697587514
352,Utrik,11.2278,169.8474,82.04,81,89,18.79,MH,1697587692
353,Howard Springs,-12.497,131.047,89.82,38,39,3.58,AU,1697587692
354,Pimentel,-6.8367,-79.9342,70.09,78,0,17.27,PE,1697587693
355,Pahrump,36.2083,-115.9839,88.52,10,4,1.99,US,1697587693
356,Pemalang,-6.9,109.3667,82.15,69,67,5.37,ID,1697587693
357,Arica,-18.475,-70.3042,67.55,81,23,3.78,CL,1697587694
358,Khash,28.2211,61.2158,65.97,47,35,4.68,IR,1697587694
359,Boysun,38.2061,67.1986,53.76,54,100,2.44,UZ,1697587694
360,Labytnangi,66.6572,66.4183,34.57,100,100,3.56,RU,1697587695
361,Vernon,50.2581,-119.2691,60.75,43,80,1.99,CA,1697587695
362,Freetown,8.484,-13.2299,77.38,84,98,3.47,SL,1697587695
363,Jabat,7.75,168.9751,82.69,74,27,5.79,MH,1697587695
364,Ixtapa,20.7,-105.2,87.03,70,75,4.61,MX,1697587609
365,Batticaloa,7.7102,81.6924,77.16,90,100,11.27,LK,1697587696
366,Broken Hill,-31.95,141.4333,68.11,25,0,11.59,AU,1697587697
367,Coruripe,-10.1256,-36.1756,73.54,80,67,8.99,BR,1697587697
368,Petropavlovsk-Kamchatsky,53.0452,158.6483,43.45,88,75,8.95,RU,1697587697
369,Margate,51.3813,1.3862,53.91,73,100,8.01,GB,1697587698
370,Emerald,-23.5333,148.1667,76.33,50,25,16.22,AU,1697587698
371,Dhrangadhra,22.9833,71.4667,78.21,59,0,5.77,IN,1697587698
372,Maplewood,44.953,-92.9952,58.57,70,0,4.61,US,1697587699
373,Binhe,32.6883,112.8275,67.57,60,36,3.94,CN,1697587699
374,Berezovyy,51.6667,135.7,40.39,81,100,2.82,RU,1697587699
375,Shiqian,27.5225,108.2281,67.14,72,85,2.82,CN,1697587699
376,Chaparral,3.7232,-75.4832,74.89,68,30,3.78,CO,1697587700
377,Presidente Medici,-11.1753,-61.9014,80.42,58,72,4.18,BR,1697587700
378,Katsuura,35.1333,140.3,68.07,76,45,7.16,JP,1697587700
379,Benjamin Aceval,-24.9667,-57.5667,86.2,55,83,13.04,PY,1697587701
380,Fort Mcmurray,56.7268,-111.381,51.39,66,0,10.36,CA,1697587570
381,Klyuchi,52.2667,79.1667,45.57,52,25,7.25,RU,1697587701
382,San Andres,12.5847,-81.7006,84.22,79,20,9.22,CO,1697587702
383,Tsetserleg,47.475,101.4542,35.47,32,74,6.33,MN,1697587702
384,Chiredzi,-21.05,31.6667,66.61,70,98,7.52,ZW,1697587702
385,I-N-Salah,27.1935,2.4607,79.79,17,29,5.03,DZ,1697587703
386,Melekeok Village,7.4957,134.6367,84.76,79,75,3.44,PW,1697587703
387,Zakamensk,50.3741,103.2863,32.05,71,86,4.52,RU,1697587704
388,Malango,-2.9627,119.9001,75.72,77,73,2.89,ID,1697587704
389,Souillac,-20.5167,57.5167,74.26,89,72,4.27,MU,1697587704
390,Pangody,65.85,74.4859,41.27,95,100,11.56,RU,1697587704
391,Taoudenni,22.6783,-3.9836,88.27,14,0,9.24,ML,1697587705
392,Karratha,-20.7377,116.8463,87.85,18,0,6.06,AU,1697587705
393,Ma'Rib,15.4591,45.3253,72.37,23,0,6.96,YE,1697587705
394,Tazovsky,67.4667,78.7,39.18,98,100,13.11,RU,1697587706
395,Selfoss,63.9331,-20.9971,50.04,91,100,27.87,IS,1697587706
396,St. John'S,47.5649,-52.7093,40.96,90,100,5.75,CA,1697587463
397,Mogocha,53.7333,119.7667,29.75,87,100,4.0,RU,1697587707
398,Watsa,3.0372,29.5355,63.61,98,96,1.34,CD,1697587707
399,Corner Brook,48.9667,-57.9484,37.26,86,57,2.21,CA,1697587705
400,Lerwick,60.1545,-1.1494,48.2,86,100,8.86,GB,1697587707
401,Maramba,-5.05,38.6167,63.79,93,99,3.58,TZ,1697587708
402,Gebeit,21.0667,36.3167,74.21,47,15,5.46,SD,1697587708
403,Suva,-18.1416,178.4415,80.08,74,75,10.36,FJ,1697587470
404,Mar Del Plata,-38.0023,-57.5575,51.1,75,0,4.18,AR,1697587622
405,Chimoio,-19.1164,33.4833,64.35,92,94,6.17,MZ,1697587709
406,Muisne,0.6,-80.0333,77.94,83,63,6.29,EC,1697587709
407,Coahuayana De Hidalgo,18.7,-103.6583,79.65,92,100,2.75,MX,1697587709
408,Kaesong,37.9708,126.5544,57.58,58,91,3.96,KP,1697587710
409,Karaton,-6.3424,106.1045,79.18,69,43,1.72,ID,1697587710
410,College,64.8569,-147.8028,35.55,80,75,4.61,US,1697587710
411,Cockburn Town,21.4612,-71.1419,84.76,70,23,8.37,TC,1697587448
412,Kununurra,-15.7667,128.7333,85.98,25,1,3.44,AU,1697587646
413,Karasburg,-28.0167,18.75,69.42,20,0,6.98,NA,1697587711
414,Biltine,14.5333,20.9167,83.16,19,28,13.24,TD,1697587712
415,Sao Jose Da Coroa Grande,-8.8978,-35.1478,74.82,82,100,9.28,BR,1697587712
416,Bonthe,7.5264,-12.505,76.59,88,94,4.88,SL,1697587712
417,Umm Kaddadah,13.6017,26.6876,81.03,18,98,14.25,SD,1697587712
418,Afaahiti,-17.75,-149.2833,82.27,84,95,17.43,PF,1697587713
419,Whangarei,-35.7317,174.3239,67.42,75,100,6.89,NZ,1697587713
420,Gradignan,44.7726,-0.6139,68.34,81,0,17.27,FR,1697587713
421,Sao Miguel Do Iguacu,-25.3481,-54.2378,70.68,92,85,9.35,BR,1697587714
422,Mao,39.8885,4.2658,73.96,88,0,11.5,ES,1697587714
423,Kirensk,57.7853,108.1119,33.03,95,87,1.99,RU,1697587714
424,Nahiyat Ash Shinafiyah,31.5874,44.6602,76.05,35,0,1.77,IQ,1697587715
425,Bamboo Flat,11.7,92.7167,78.89,94,40,1.14,IN,1697587715
426,Patterson,37.4716,-121.1297,84.74,46,2,10.18,US,1697587715
427,Manokwari,-0.8667,134.0833,82.96,69,88,3.67,ID,1697587715
428,Tsiombe,-25.3,45.4833,71.58,93,100,5.91,MG,1697587716
429,Lobujya,27.95,86.8167,14.97,92,82,2.84,NP,1697587716
430,Ceeldheer,3.8488,47.1806,79.95,84,55,10.02,SO,1697587716
431,Kapa'A,22.0752,-159.319,84.52,67,40,8.05,US,1697587717
432,Xinyu,27.8043,114.9334,68.58,66,0,0.56,CN,1697587717
433,Tindouf,27.6711,-8.1474,76.68,28,53,2.15,DZ,1697587717
434,Tehri,30.3833,78.4833,55.49,72,0,5.64,IN,1697587718
435,Saint-Francois,46.4154,3.9054,62.04,75,0,6.91,FR,1697587718
436,Haiku-Pauwela,20.9219,-156.3051,86.02,48,20,10.36,US,1697587718
437,Trashi Yangtse,27.6116,91.498,49.5,72,1,5.91,BT,1697587719
438,Tshikapa,-6.4167,20.8,70.36,97,77,1.83,CD,1697587719
439,Thayetmyo,19.3167,95.1833,74.07,93,21,0.56,MM,1697587719
440,Kone,-21.0595,164.8658,79.32,67,38,9.08,NC,1697587720
441,Palmas,-10.2128,-48.3603,85.41,23,0,2.95,BR,1697587720
442,Xiva,41.3783,60.3639,51.78,59,100,4.7,UZ,1697587720
443,Lillesand,58.2488,8.3778,43.9,70,46,2.3,NO,1697587720
444,Bairnsdale,-37.8333,147.6167,64.06,57,0,1.01,AU,1697587721
445,Kamien Pomorski,53.9685,14.7726,44.76,72,99,14.61,PL,1697587721
446,Valley City,46.9233,-98.0032,63.12,59,75,14.97,US,1697587721
447,Torghay,49.6339,63.4981,48.61,48,0,7.63,KZ,1697587722
448,Mahibadhoo,3.7833,72.9667,83.07,69,26,9.66,MV,1697587722
449,Akrehamn,59.2667,5.1833,46.42,93,75,6.91,NO,1697587722
450,Alva,56.1528,-3.8051,52.27,84,100,8.99,GB,1697587722
451,Puerto Ayacucho,5.6639,-67.6236,80.06,79,49,1.95,VE,1697587723
452,Yamada,39.4667,141.95,61.54,59,1,2.35,JP,1697587723
453,Gloucester,51.8657,-2.2431,52.79,77,100,1.99,GB,1697587723
454,Santa Maria,-29.6842,-53.8069,64.26,97,100,7.0,BR,1697587724
455,Miri,4.4148,114.0089,80.47,85,85,5.26,MY,1697587724
456,Boende,-0.2167,20.8667,74.07,87,91,3.02,CD,1697587724
457,Pariaman,-0.619,100.12,75.25,86,100,2.86,ID,1697587724
458,Zhumysker,49.3333,49.4,41.34,59,0,10.2,KZ,1697587725
459,Piacabucu,-10.4056,-36.4344,74.37,76,70,8.79,BR,1697587725
460,Ternate,0.8,127.4,82.81,74,10,3.06,ID,1697587726
461,Sinan,34.8262,126.1086,62.04,63,15,2.42,KR,1697587726
462,Hirara,24.8,125.2833,77.56,63,57,13.31,JP,1697587726
463,Cafayate,-26.073,-65.9761,61.14,82,88,6.64,AR,1697587727
464,Kalmunai,7.4167,81.8167,76.57,92,100,7.07,LK,1697587727
465,Ongjin,37.9347,125.3619,62.22,62,93,8.57,KP,1697587727
466,El Chorrillo,-33.2909,-66.268,60.49,20,1,23.35,AR,1697587727
467,Poplar Bluff,36.757,-90.3929,60.58,62,0,3.44,US,1697587701
468,Jining,35.405,116.5814,66.58,49,100,7.23,CN,1697587728
469,Pokrovskoye,47.4157,38.8971,43.93,64,100,5.3,RU,1697587728
470,Xining,36.6167,101.7667,39.87,78,100,4.76,CN,1697587556
471,Dunay,42.8803,132.3375,56.39,84,91,11.32,RU,1697587729
472,Al Kharijah,25.4514,30.5464,70.68,41,0,7.43,EG,1697587729
473,Ressano Garcia,-25.442,31.9913,65.82,78,97,13.22,MZ,1697587729
474,Mega,4.05,38.3,63.9,75,93,5.39,ET,1697587730
475,Petrozavodsk,61.7849,34.3469,40.51,75,95,15.99,RU,1697587730
476,Jiazi,22.8779,116.067,73.08,81,100,18.37,CN,1697587730
477,Daru,-9.0763,143.2092,80.73,80,81,9.53,PG,1697587731
478,Kasimov,54.9411,41.3953,39.02,85,100,14.45,RU,1697587731
479,Szecseny,48.0806,19.5202,39.63,74,58,2.24,HU,1697587731
480,Clovis,36.8252,-119.7029,85.15,37,0,0.0,US,1697587663
481,Petnjica,42.9092,19.9638,42.89,97,92,1.61,ME,1697587732
482,Faranah,10.0404,-10.7434,71.24,97,99,2.44,GN,1697587732
483,Saynshand,44.8824,110.1163,43.88,26,92,15.73,MN,1697587732
484,Ust'-Ordynskiy,52.805,104.7508,42.33,93,95,11.48,RU,1697587733
485,Imbituba,-28.24,-48.6703,70.9,89,100,12.41,BR,1697587733
486,Broome,42.2506,-75.833,51.66,90,56,2.13,US,1697587733
487,Sungai Penuh,-2.0833,101.3833,67.1,83,79,2.01,ID,1697587734
488,Dalbandin,28.8947,64.4101,73.42,17,83,3.2,PK,1697587734
489,Ulladulla,-35.35,150.4667,62.35,58,76,5.19,AU,1697587734
490,Nhlangano,-27.1167,31.2,53.55,92,100,3.47,SZ,1697587735
491,Juan Rodriguez Clara,17.9833,-95.4083,69.58,87,77,7.94,MX,1697587735
492,Mugia,43.1041,-9.2179,65.16,91,100,26.78,ES,1697587735
493,San Antonio De Pale,-1.4014,5.6325,77.67,81,61,7.49,GQ,1697587736
494,Al Ghayzah,16.2079,52.176,77.4,79,19,1.41,YE,1697587736
495,Igarka,67.4667,86.5833,32.05,98,100,18.54,RU,1697587736
496,Madan,41.5,24.95,43.41,91,100,3.09,BG,1697587737
497,Sooke,48.3746,-123.7276,54.57,96,100,6.8,CA,1697587737
498,Saint-Pierre,-21.3393,55.4781,73.08,73,0,5.75,RE,1697587737
499,Phumi Veal Sre,10.9808,104.7783,79.36,83,97,2.77,KH,1697587738
500,Geraldton,-28.7667,114.6,64.81,72,7,14.97,AU,1697587738
501,Praia,14.9215,-23.5087,81.61,72,0,8.14,CV,1697587738
502,Filadelfia,39.9523,-75.1638,57.61,83,100,0.0,US,1697587584
503,Guapi,2.5708,-77.8854,77.67,91,89,2.98,CO,1697587739
504,Acarau,-2.8856,-40.12,79.25,76,99,14.25,BR,1697587739
505,Liezen,47.5667,14.2333,38.68,67,19,4.68,AT,1697587739
506,Flin Flon,54.7682,-101.865,51.01,59,100,3.62,CA,1697587740
507,Kill Devil Hills,36.0307,-75.676,62.98,65,100,4.61,US,1697587740
508,Mengcheng Chengguanzhen,33.2661,116.566,67.68,52,59,4.18,CN,1697587740
509,Vuktyl,63.8567,57.3094,44.11,81,100,10.0,RU,1697587740
510,Kapoeta,4.7717,33.5903,75.0,74,18,1.48,SS,1697587741
511,Leh,34.1667,77.5833,33.94,83,100,2.42,IN,1697587741
512,Ndioum,16.5129,-14.6471,89.02,41,5,10.6,SN,1697587741
513,Charters Towers,-20.1,146.2667,72.79,68,56,15.73,AU,1697587742
514,Estancia,-11.2683,-37.4383,70.11,80,89,3.56,BR,1697587642
515,Touros,-5.1989,-35.4608,78.01,76,40,16.89,BR,1697587742
516,Vadso,70.0744,29.7487,34.68,74,20,12.66,NO,1697587743
517,Tadine,-21.55,167.8833,72.14,95,100,7.87,NC,1697587743
518,Happy Valley-Goose Bay,53.3168,-60.3315,41.95,79,100,4.61,CA,1697587743
519,Suntar,62.1444,117.6319,29.14,93,96,4.0,RU,1697587743
520,Ad Dabbah,18.05,30.95,77.31,18,35,9.82,SD,1697587744
521,Mpanda,-6.3655,31.0409,70.47,73,69,1.66,TZ,1697587744
522,West Fargo,46.875,-96.9004,64.4,53,100,9.22,US,1697587711
523,Salsipuedes,19.4055,-70.3799,75.43,96,31,2.84,DO,1697587745
524,Jibia,13.0978,7.2225,83.77,31,75,6.82,NG,1697587745
525,Lodja,-3.4833,23.4333,69.35,99,76,2.93,CD,1697587746
526,Mbanza-Ngungu,-5.25,14.8667,71.47,84,100,3.33,CD,1697587586
527,Ta'If,21.2703,40.4158,67.21,41,57,5.19,SA,1697587562
528,Pizarro,4.9533,-77.366,79.92,82,94,3.6,CO,1697587747
529,Elk,53.8282,22.3647,40.05,70,100,12.08,PL,1697587747
530,Burang,30.25,81.1667,26.47,67,25,4.29,CN,1697587748
531,Fuglafjordur,62.244,-6.814,46.87,90,100,16.82,FO,1697587748
532,Eyl,7.9803,49.8164,79.86,83,26,3.65,SO,1697587748
533,Buulobarde,3.8538,45.5674,79.18,78,50,12.19,SO,1697587749
534,Yoko,5.5333,12.3167,65.91,97,100,2.84,CM,1697587749
535,Barika,35.389,5.3658,71.85,23,16,6.11,DZ,1697587749
536,Callao,-12.0667,-77.15,70.72,77,40,16.11,PE,1697587750
537,Acapulco De Juarez,16.8634,-99.8901,84.02,79,100,9.22,MX,1697587750
538,Gonabad,34.3529,58.6837,57.94,41,0,1.95,IR,1697587750
539,Eraan,9.0629,117.7016,82.53,81,66,2.15,PH,1697587751
540,Soio,-6.1349,12.3689,76.78,88,94,7.4,AO,1697587751
541,Newport,51.5877,-2.9984,53.82,78,100,17.4,GB,1697587537
542,Riverside,33.7333,-116.0508,95.79,18,0,5.75,US,1697587301
543,Ta`U,-14.2336,-169.5144,79.21,82,72,18.41,AS,1697587752
544,Gidole,5.65,37.3667,57.47,85,88,2.53,ET,1697587753
545,Rikaze,29.25,88.8833,34.9,56,14,3.42,CN,1697587753
546,Och'Amch'Ire,42.7123,41.4686,50.23,61,72,3.78,GE,1697587753
547,Tumayr,25.7039,45.868,69.85,52,0,7.83,SA,1697587754
548,Praia Da Vitoria,38.7333,-27.0667,70.75,95,46,16.28,PT,1697587643
549,Namibe,-15.1961,12.1522,63.28,83,69,2.37,AO,1697587754
550,Cidreira,-30.1811,-50.2056,60.31,79,100,13.06,BR,1697587755
551,Amasra,41.7463,32.3863,59.47,78,100,6.8,TR,1697587755
552,Oum Hadjer,13.2954,19.6966,84.42,18,10,7.72,TD,1697587755
553,Roccella Ionica,38.322,16.4009,67.35,84,95,8.93,IT,1697587756
554,Galliano,29.4422,-90.2992,66.0,67,0,0.0,US,1697587756
555,Puerto San Jose,13.9256,-90.8244,80.38,73,99,5.82,GT,1697587757
556,Silver City,32.7701,-108.2803,75.16,38,0,12.66,US,1697587757
557,Crane,31.3974,-102.3501,74.14,27,0,16.42,US,1697587758
558,Quirihue,-36.2833,-72.5333,54.97,67,0,2.84,CL,1697587758
559,Tefe,-3.3542,-64.7114,82.51,78,20,3.44,BR,1697587758
560,Krasnovishersk,60.4078,57.082,40.53,68,79,16.11,RU,1697587759
561,Bengkulu,-3.8004,102.2655,74.86,89,100,3.15,ID,1697587759
562,Lock Haven,41.137,-77.4469,55.29,88,97,2.8,US,1697587759
563,Yeniseysk,58.4497,92.1703,42.94,70,98,5.01,RU,1697587760
564,Chibougamau,49.9168,-74.3659,41.81,72,14,2.35,CA,1697587760
565,Novomikhaylovskiy,44.2581,38.8578,46.8,75,100,10.07,RU,1697587761
566,Warrnambool,-38.3833,142.4833,63.36,54,0,5.79,AU,1697587761
567,La Jolla,32.8473,-117.2742,86.99,76,40,6.91,US,1697587761
568,Santa Terezinha,-29.9002,-50.0904,60.44,87,99,14.0,BR,1697587762
569,Axim,4.8699,-2.2405,76.64,90,49,3.74,GH,1697587762
570,Calama,-22.4667,-68.9333,60.21,34,1,6.64,CL,1697587628
571,Micheweni,-4.9667,39.8333,78.4,85,94,7.16,TZ,1697587763
572,Dryden,49.7833,-92.7503,49.91,63,94,4.61,CA,1697587763
573,Ojinaga,29.5667,-104.4167,85.57,26,0,0.0,MX,1697587763
574,Jerome,42.7241,-114.5186,67.48,44,0,19.57,US,1697587764
575,Corleone,37.8134,13.3017,66.49,63,83,2.73,IT,1697587764
576,Sao Joao Da Barra,-21.6403,-41.0511,74.68,88,74,16.78,BR,1697587764
577,Jayapura,-2.5333,140.7,85.39,78,78,3.83,ID,1697587765
578,Hengchun,22.0042,120.7439,77.22,82,100,15.93,TW,1697587765
579,Allapalli,19.4167,80.0667,68.49,77,9,1.99,IN,1697587765
580,Dawei,14.0833,98.2,76.15,91,73,2.77,MM,1697587765
