City_ID,City,Lat,Lng,Max Temp,Humidity,Cloudiness,Wind Speed,Country,Date
0,bilibino,68.0546,166.4372,266.46,85,100,2.06,RU,1697078455
1,montmorillon,46.4167,0.6667,288.0,54,80,3.72,FR,1697078455
2,port-aux-francais,-49.35,70.2167,274.61,100,100,5.55,TF,1697078455
3,bonanza,14.0289,-84.591,296.85,98,49,1.1,NI,1697078456
4,fort mcmurray,56.7268,-111.381,284.92,58,0,4.12,CA,1697078456
5,tiksi,71.6872,128.8694,268.85,82,100,7.08,RU,1697078244
6,jaltepec,19.7333,-98.6333,287.72,85,97,1.69,MX,1697078457
7,bethel,41.3712,-73.414,285.89,82,0,0.0,US,1697078230
8,mount pearl,47.5166,-52.7813,285.45,97,75,2.06,CA,1697078457
9,nema,57.5067,50.5011,274.24,79,100,7.07,RU,1697078239
10,adamstown,-25.066,-130.1015,293.76,72,2,4.67,PN,1697078227
11,waitangi,-43.9535,-176.5597,286.38,79,21,7.6,NZ,1697078458
12,dryden,49.7833,-92.7503,279.31,87,20,1.54,CA,1697078458
13,mbanza kongo,-6.267,14.2401,294.62,93,60,1.83,AO,1697078458
14,talnakh,69.4865,88.3972,272.71,95,100,1.19,RU,1697078459
15,utrik,11.2278,169.8474,301.43,74,93,5.29,MH,1697078459
16,palikir - national government center,6.9248,158.1611,299.62,94,100,2.06,FM,1697078459
17,uturoa,-16.7333,-151.4333,299.55,78,20,6.88,PF,1697078460
18,gidam,18.9833,81.4,299.75,65,0,0.9,IN,1697078460
19,edinburgh of the seven seas,-37.0676,-12.3116,286.96,86,77,9.22,SH,1697078460
20,bandarbeyla,9.4942,50.8122,298.86,88,6,2.29,SO,1697078460
21,grytviken,-54.2811,-36.5092,268.11,72,18,3.82,GS,1697078227
22,puerto ayora,-0.7393,-90.3518,296.79,97,100,0.89,EC,1697078461
23,joshimath,30.5667,79.5667,293.91,38,0,1.02,IN,1697078461
24,kerikeri,-35.2268,173.9474,291.99,65,7,2.24,NZ,1697078462
25,dudinka,69.4058,86.1778,274.64,93,100,6.71,RU,1697078233
26,cockburn town,21.4612,-71.1419,302.15,72,99,8.24,TC,1697078243
27,luena,-11.7833,19.9167,290.88,78,90,1.41,AO,1697078248
28,waingapu,-9.6567,120.2641,304.88,50,22,5.08,ID,1697078463
29,margaret river,-33.95,115.0667,291.99,41,0,2.02,AU,1697078463
30,mandali,33.7499,45.5541,301.84,21,59,3.74,IQ,1697078464
31,port elizabeth,-33.918,25.5701,291.31,96,75,4.63,ZA,1697078464
32,ushuaia,-54.8,-68.3,277.96,75,40,12.35,AR,1697078464
33,aasiaat,68.7098,-52.8699,267.38,94,100,4.13,GL,1697078465
34,bredasdorp,-34.5322,20.0403,288.2,90,92,2.89,ZA,1697078465
35,punta arenas,-53.15,-70.9167,279.21,75,75,6.69,CL,1697078238
36,keflavik,64.0049,-22.5624,275.39,93,100,12.35,IS,1697078465
37,hamilton,39.1834,-84.5333,288.64,79,100,0.45,US,1697078466
38,blackmans bay,-43.0167,147.3167,289.11,55,100,0.45,AU,1697078466
39,hawaiian paradise park,19.5933,-154.9731,299.88,85,40,3.6,US,1697078466
40,markovo,57.3206,107.0881,285.97,55,99,4.25,RU,1697078467
41,isafjordur,66.0755,-23.124,274.9,92,100,17.05,IS,1697078467
42,minas de marcona,-15.2119,-75.1103,286.75,85,98,5.89,PE,1697078467
43,constitucion,-35.3333,-72.4167,283.79,81,0,3.46,CL,1697078457
44,debark',13.1561,37.8981,285.17,56,84,1.37,ET,1697078468
45,irbit,57.6705,63.071,276.69,93,100,3.11,RU,1697078468
46,chonchi,-42.6128,-73.8092,279.88,76,85,2.83,CL,1697078468
47,stanley,54.868,-1.6985,276.92,95,0,2.57,GB,1697078469
48,tangalle,6.024,80.7911,298.24,85,94,3.71,LK,1697078469
49,lepsy,46.235,78.9456,293.09,25,61,3.1,KZ,1697078469
50,port augusta,-32.5,137.7667,294.48,32,0,10.56,AU,1697078469
51,walvis bay,-22.9575,14.5053,286.68,94,0,2.57,NA,1697078470
52,illizi,26.4833,8.4667,295.38,29,86,5.27,DZ,1697078470
53,cabo san lucas,22.8909,-109.9124,302.76,80,0,8.75,MX,1697078231
54,radomsko,51.0671,19.4448,290.32,62,100,8.08,PL,1697078471
55,udachny,66.4167,112.4,274.51,74,100,5.18,RU,1697078471
56,iqaluit,63.7506,-68.5145,273.0,80,20,2.57,CA,1697078472
57,college,64.8569,-147.8028,270.62,86,100,2.57,US,1697078472
58,castricum,52.5483,4.6694,287.59,59,100,1.43,NL,1697078472
59,tazovsky,67.4667,78.7,274.93,98,100,3.1,RU,1697078473
60,lahaina,20.8783,-156.6825,301.15,80,34,3.59,US,1697078473
61,colonia,50.9333,6.95,293.13,63,20,6.17,DE,1697078347
62,papatowai,-46.5619,169.4708,285.28,65,49,6.96,NZ,1697078473
63,flying fish cove,-10.4217,105.6791,299.97,83,100,6.69,CX,1697078474
64,port macquarie,-31.4333,152.9167,300.31,53,0,7.98,AU,1697078341
65,nangomba,-10.9,38.5,294.71,83,100,1.86,TZ,1697078474
66,puerto natales,-51.7236,-72.4875,277.1,91,94,4.35,CL,1697078475
67,greymouth,-42.4667,171.2,286.28,79,48,3.24,NZ,1697078475
68,ixtapa,20.7,-105.2,300.72,83,40,0.0,MX,1697078475
69,vahdat,38.5563,69.0135,286.56,58,2,1.0,TJ,1697078475
70,weno,7.4515,151.8468,304.12,74,40,2.57,FM,1697078476
71,susuman,62.7833,148.1667,260.92,77,68,0.89,RU,1697078476
72,vilyuysk,63.7553,121.6247,279.35,60,45,5.81,RU,1697078477
73,hithadhoo,-0.6,73.0833,300.54,72,10,6.39,MV,1697078477
74,green valley,31.8543,-110.9937,301.68,40,0,3.47,US,1697078477
75,puerto santa,-8.9906,-78.6456,291.58,89,100,5.57,PE,1697078477
76,ouadda,8.0777,22.4007,293.37,95,100,2.53,CF,1697078478
77,nabinagar,23.8917,90.9733,301.22,76,0,1.78,BD,1697078478
78,ilulissat,69.2167,-51.1,270.16,68,100,2.06,GL,1697078478
79,alavus,62.5833,23.6167,278.1,92,60,3.93,FI,1697078479
80,hadibu,12.65,54.0333,300.09,82,81,2.02,YE,1697078479
81,hermanus,-34.4187,19.2345,288.28,89,98,3.36,ZA,1697078479
82,tazacorte,28.629,-17.9293,301.57,27,0,4.02,ES,1697078479
83,yellowknife,62.456,-114.3525,282.27,100,100,2.57,CA,1697078480
84,whitehorse,60.7161,-135.0538,278.58,86,75,4.12,CA,1697078481
85,olonkinbyen,70.9221,-8.7187,274.81,70,100,10.28,SJ,1697078481
86,yokadouma,3.5167,15.05,293.78,94,83,0.79,CM,1697078481
87,hovd,48.0056,91.6419,284.82,34,6,0.33,MN,1697078481
88,enewetak,11.3474,162.3373,301.75,73,42,5.31,MH,1697078482
89,i-n-salah,27.1935,2.4607,298.36,26,9,9.65,DZ,1697078482
90,acala,16.5667,-92.8,300.27,90,100,0.94,MX,1697078482
91,albany,42.6001,-73.9662,285.56,82,100,1.24,US,1697078213
92,ebon,4.582,168.6964,302.17,68,18,1.38,MH,1697078483
93,saint-philippe,-21.3585,55.7679,294.92,60,87,1.98,RE,1697078484
94,srikakulam,18.3,83.9,301.58,72,96,2.19,IN,1697078484
95,at taj,24.2049,23.2857,293.65,38,11,3.74,LY,1697078484
96,broken hill,-31.95,141.4333,294.07,25,0,11.37,AU,1697078485
97,bianzhuang,34.8486,118.0447,294.53,52,100,2.65,CN,1697078485
98,cantilan,9.3336,125.9775,302.72,73,67,2.11,PH,1697078485
99,georgetown,5.4112,100.3354,304.79,84,20,1.54,MY,1697078402
100,alofi,-19.0595,-169.9187,299.09,69,75,6.69,NU,1697078486
101,gbarnga,6.9956,-9.4722,295.09,100,100,0.43,LR,1697078486
102,gaiman,-43.2897,-65.4929,283.8,35,0,5.03,AR,1697078486
103,union city,37.5958,-122.0192,292.12,72,0,6.17,US,1697078364
104,novodvinsk,64.4165,40.8122,273.03,91,100,5.9,RU,1697078487
105,mar del plata,-38.0023,-57.5575,279.87,79,0,1.79,AR,1697078457
106,kodiak,57.79,-152.4072,276.88,48,20,5.14,US,1697078487
107,alto araguaia,-17.3147,-53.2153,298.46,63,100,0.43,BR,1697078488
108,qaqortoq,60.7167,-46.0333,275.1,91,11,3.34,GL,1697078488
109,hanceville,34.0607,-86.7675,289.63,97,100,2.09,US,1697078488
110,las tablas,7.7667,-80.2833,299.42,88,100,1.72,PA,1697078260
111,obidos,-1.9175,-55.5181,303.94,38,82,3.11,BR,1697078489
112,kepsut,39.6889,28.1522,283.23,88,0,1.9,TR,1697078489
113,port-cartier,50.0334,-66.8654,281.97,88,100,2.25,CA,1697078489
114,anadyr,64.75,177.4833,274.43,80,75,19.0,RU,1697078490
115,nagqu,31.5,92.0,275.9,31,100,4.2,CN,1697078490
116,grand falls-windsor,48.9332,-55.6649,280.65,91,100,1.17,CA,1697078435
117,baoshan,46.5586,131.4244,291.55,37,14,6.1,CN,1697078491
118,tocopilla,-22.092,-70.1979,290.95,75,23,2.19,CL,1697078491
119,oroqen zizhiqi,50.5667,123.7167,289.53,34,7,4.39,CN,1697078491
120,berezovyy,51.6667,135.7,289.75,45,12,3.64,RU,1697078491
121,ancud,-41.8697,-73.8203,278.72,86,24,3.03,CL,1697078492
122,longyearbyen,78.2186,15.6401,269.06,58,40,7.2,SJ,1697078229
123,gadzhiyevo,69.2551,33.3362,274.05,86,98,12.15,RU,1697078492
124,manokwari,-0.8667,134.0833,302.46,70,76,4.12,ID,1697078493
125,papao,-17.75,-149.55,301.97,79,7,8.27,PF,1697078493
126,tolanaro,-25.0319,46.9987,294.19,94,75,4.12,MG,1697078493
127,invercargill,-46.4,168.35,286.49,75,91,8.05,NZ,1697078231
128,macclenny,30.2822,-82.1221,294.27,94,100,0.45,US,1697077897
129,petropavlovsk-kamchatsky,53.0452,158.6483,277.48,73,100,6.71,RU,1697078235
130,mwinilunga,-11.7358,24.4293,291.31,76,99,1.84,ZM,1697078495
131,poshekhon'ye,58.4993,39.1353,277.71,89,100,8.73,RU,1697078495
132,neiafu,-18.65,-173.9833,299.53,73,40,4.63,TO,1697078495
133,senanga,-16.1167,23.2667,294.02,39,3,1.31,ZM,1697078496
134,ribeira grande,38.5167,-28.7,293.02,91,37,3.58,PT,1697078496
135,antalaha,-14.9003,50.2788,294.11,85,30,2.25,MG,1697078496
136,fale old settlement,-9.3852,-171.2468,302.13,76,29,7.26,TK,1697078496
137,youssoufia,32.2463,-8.5294,291.56,78,0,1.05,MA,1697078497
138,port blair,11.6667,92.75,302.17,79,40,1.03,IN,1697078497
139,usogorsk,63.4106,48.6872,272.41,85,100,5.58,RU,1697078497
140,tarfaya,27.9358,-12.9218,294.57,83,78,5.57,MA,1697078498
141,ust-nera,64.5667,143.2,262.71,91,100,1.34,RU,1697078498
142,yerofey pavlovich,53.9667,121.9667,286.2,47,89,4.06,RU,1697078498
143,constantia,44.1833,28.65,282.53,68,7,3.75,RO,1697078498
144,ulan bator,47.9077,106.8832,276.22,65,0,1.0,MN,1697078489
145,tweed heads,-28.1817,153.547,303.82,59,0,8.75,AU,1697078499
146,kimberley,-28.7323,24.7623,286.98,88,100,5.66,ZA,1697078499
147,mwene-ditu,-7.0,23.45,292.07,94,100,1.46,CD,1697078500
148,chefchaouene,35.1688,-5.2636,289.91,88,24,2.62,MA,1697078500
149,nova sintra,14.8667,-24.7167,297.07,70,93,3.61,CV,1697078500
150,ocos,14.5094,-92.1933,300.25,80,100,0.88,GT,1697078500
151,sisimiut,66.9395,-53.6735,271.2,72,89,3.68,GL,1697078238
152,blenheim,-41.516,173.9528,292.88,55,3,2.68,NZ,1697078501
153,sinabang,2.4803,96.3801,298.79,89,100,1.77,ID,1697078501
154,fisterra,42.9049,-9.2629,291.9,80,87,6.05,ES,1697078502
155,aykhal,66.0,111.5,274.86,71,100,11.62,RU,1697078502
156,garbahaarrey,3.3289,42.2209,297.99,76,95,5.99,SO,1697078502
157,xichang,27.8964,102.2634,290.33,93,100,1.26,CN,1697078503
158,akureyri,65.6835,-18.0878,273.11,74,100,1.54,IS,1697078503
159,gargalianoi,37.0667,21.6333,288.49,68,2,2.26,GR,1697078503
160,atafu village,-8.5421,-172.5159,301.31,75,77,4.56,TK,1697078503
161,camapua,-19.5314,-54.0439,300.55,57,83,1.08,BR,1697078504
162,kalmunai,7.4167,81.8167,299.75,80,95,3.12,LK,1697078504
163,valparaiso,-33.0393,-71.6273,284.95,76,0,1.54,CL,1697078483
164,taltal,-25.4,-70.4833,290.76,67,62,2.28,CL,1697078505
165,boende,-0.2167,20.8667,293.65,96,37,1.1,CD,1697078505
166,baturaja,-4.1333,104.1667,307.29,41,61,2.11,ID,1697078505
167,porto seguro,-16.4497,-39.0647,297.44,83,20,4.12,BR,1697078505
168,pacific grove,36.6177,-121.9166,290.49,82,20,4.63,US,1697078219
169,mhamid,29.82,-5.72,295.03,29,83,2.34,MA,1697078506
170,ambon,-3.6954,128.1814,300.79,76,65,4.4,ID,1697078506
171,kupang,-10.1667,123.5833,304.7,52,9,2.71,ID,1697078507
172,sao jose da coroa grande,-8.8978,-35.1478,296.84,82,2,2.65,BR,1697078507
173,vorgashor,67.5833,63.95,272.49,83,99,1.15,RU,1697078507
174,touba,8.2833,-7.6833,294.18,92,100,1.01,CI,1697078507
175,fruita,39.1589,-108.729,284.03,87,99,0.89,US,1697078508
176,alice springs,-23.7,133.8833,306.9,11,4,5.14,AU,1697078353
177,west island,-12.1568,96.8225,301.14,74,75,5.14,CC,1697078508
178,port mathurin,-19.6833,63.4167,296.6,77,40,4.28,MU,1697078509
179,olinda,-8.0089,-34.8553,300.0,69,40,4.12,BR,1697078386
180,linden,6.0,-58.3,296.99,88,0,1.42,GY,1697078509
181,sengiley,53.9622,48.7944,275.25,76,97,6.53,RU,1697078509
182,sawakin,19.1059,37.3321,301.88,76,55,3.48,SD,1697078510
183,plesetsk,62.708,40.2916,279.49,95,100,6.3,RU,1697078510
184,richards bay,-28.783,32.0377,294.41,84,100,2.78,ZA,1697078510
185,torghay,49.6339,63.4981,279.01,58,100,3.64,KZ,1697078511
186,ustka,54.5805,16.8619,286.29,82,100,10.24,PL,1697078511
187,westport,41.1415,-73.3579,288.09,84,0,1.54,US,1697078511
188,newman,37.3138,-121.0208,293.14,47,0,2.24,US,1697078512
189,villa gesell,-37.2639,-56.973,280.14,65,98,5.35,AR,1697078512
190,sokcho,38.2083,128.5911,293.49,64,20,3.6,KR,1697078512
191,annau,37.8876,58.516,287.87,58,40,6.17,TM,1697078513
192,sitka,57.0531,-135.33,285.09,58,75,2.06,US,1697078513
193,tobelo,1.7284,128.0095,303.4,60,100,3.53,ID,1697078513
194,basco,20.4487,121.9702,301.07,72,88,10.33,PH,1697078514
195,maragogi,-9.0122,-35.2225,296.73,81,3,2.38,BR,1697078514
196,villa tupac amaru,-13.7,-76.15,291.75,82,0,4.63,PE,1697078514
197,gamba,-2.65,10.0,297.65,92,100,1.36,GA,1697078514
198,tokmok,42.8417,75.3016,296.47,19,2,3.2,KG,1697078515
199,prineville,44.2999,-120.8345,283.54,93,100,2.57,US,1697078515
200,codrington,-38.2667,141.9667,286.83,79,74,9.35,AU,1697078515
201,shizunai-furukawacho,42.3339,142.3669,289.44,63,34,6.68,JP,1697078516
202,juan griego,11.0817,-63.9655,300.15,88,4,4.91,VE,1697078516
203,ribeira brava,32.65,-17.0667,302.5,16,99,2.24,PT,1697078516
204,wailua homesteads,22.0669,-159.378,301.39,74,0,5.14,US,1697078516
205,kristianstad,56.0313,14.1524,284.23,79,92,6.17,SE,1697078517
206,cestos city,5.46,-9.5828,297.54,91,100,0.93,LR,1697078517
207,alaghsas,17.0187,8.0168,301.55,17,89,6.44,NE,1697078517
208,hotan,37.0997,79.9269,291.83,22,0,1.24,CN,1697078517
209,thompson,55.7435,-97.8558,281.24,46,75,2.06,CA,1697078518
210,makarov,48.6333,142.8,287.5,52,50,4.76,RU,1697078518
211,howard springs,-12.497,131.047,306.1,28,73,2.24,AU,1697078518
212,saipan,15.1355,145.701,302.54,84,75,8.75,MP,1697078519
213,nizhneudinsk,54.9076,99.0276,287.05,51,86,1.79,RU,1697078519
214,shingu,33.7333,135.9833,295.19,64,14,4.23,JP,1697078227
215,lebu,-37.6167,-73.65,282.48,88,0,8.61,CL,1697078519
216,burang,30.25,81.1667,281.08,19,0,0.96,CN,1697078520
217,lihue,21.9789,-159.3672,301.73,68,0,5.14,US,1697078237
218,la'ie,21.6477,-157.9253,302.13,69,100,2.68,US,1697078520
219,menzelinsk,55.7271,53.1026,274.38,86,100,3.58,RU,1697078520
220,lethem,3.3803,-59.7968,301.79,42,4,2.9,GY,1697078521
221,bodaybo,57.8506,114.1933,286.2,53,73,2.24,RU,1697078242
222,brewton,31.1052,-87.0722,289.41,91,100,6.02,US,1697078521
223,mangrol,21.1167,70.1167,299.87,77,5,2.6,IN,1697078522
224,ephrata,40.1798,-76.1788,286.22,81,0,0.0,US,1697078522
225,sao paulo de olivenca,-3.3783,-68.8725,296.11,97,52,1.12,BR,1697078522
226,balykshi,47.0667,51.8667,276.15,93,75,6.0,KZ,1697078522
227,dawson creek,55.7666,-120.2362,281.95,93,20,2.06,CA,1697078331
228,guerrero negro,27.9769,-114.0611,292.77,76,20,8.36,MX,1697078523
229,nogliki,51.8333,143.1667,285.01,58,89,6.26,RU,1697078523
230,praia da vitoria,38.7333,-27.0667,292.46,88,0,4.11,PT,1697078524
231,kayangel,8.0823,134.7173,301.05,81,62,8.94,PW,1697078524
232,jamestown,42.097,-79.2353,282.92,99,0,1.54,US,1697078236
233,kalabo,-14.97,22.6814,294.43,51,22,2.51,ZM,1697078524
234,castillos,-34.1667,-53.8333,280.72,64,82,5.87,UY,1697078525
235,vilhena,-12.7406,-60.1458,298.68,57,27,0.94,BR,1697078525
236,fort bragg,35.139,-79.006,291.43,87,40,1.54,US,1697078525
237,tymovskoye,50.8456,142.655,287.33,54,80,3.5,RU,1697078526
238,touros,-5.1989,-35.4608,298.43,79,34,6.7,BR,1697078340
239,mersa matruh,31.3525,27.2453,294.26,78,40,2.06,EG,1697078526
240,pisco,-13.7,-76.2167,292.18,82,0,4.63,PE,1697078527
241,arias,-33.6441,-62.4027,279.67,37,4,2.95,AR,1697078527
242,laguna,38.421,-121.4238,293.74,43,0,3.6,US,1697078283
243,holualoa,19.6228,-155.9522,299.06,79,75,4.63,US,1697078528
244,el carmen,8.5106,-73.4478,293.68,95,1,1.62,CO,1697078528
245,namibe,-15.1961,12.1522,293.24,84,96,2.43,AO,1697078528
246,kapa'a,22.0752,-159.319,302.14,74,0,5.14,US,1697078528
247,marka,1.7159,44.7717,298.87,88,50,3.2,SO,1697078529
248,marsh harbour,26.5412,-77.0636,301.47,80,100,4.67,BS,1697078529
249,kimry,56.8667,37.35,278.65,62,100,4.92,RU,1697078530
250,mccook,40.2019,-100.6257,297.18,41,0,6.69,US,1697078530
251,bukama,-9.2,25.85,296.32,79,100,0.42,CD,1697078530
252,bushehr,28.9684,50.8385,296.2,78,0,0.0,IR,1697078531
253,ouesso,1.6136,16.0517,294.6,93,97,0.44,CG,1697078531
254,turinsk,58.0458,63.696,277.03,67,100,4.02,RU,1697078531
255,arua,3.0201,30.9111,290.61,89,99,0.99,UG,1697078531
256,port alfred,-33.5906,26.891,289.92,98,100,2.24,ZA,1697078532
257,mgandu,-5.95,34.1333,290.64,68,100,2.42,TZ,1697078532
258,ngereklmadel,7.4883,134.4856,304.2,70,75,6.69,PW,1697078532
259,luderitz,-26.6481,15.1594,286.21,81,25,3.25,NA,1697078533
260,igarka,67.4667,86.5833,276.02,90,100,2.41,RU,1697078533
261,silvan,38.1419,41.0081,283.31,43,7,1.52,TR,1697078533
262,port saint john's,-31.6229,29.5448,292.82,92,100,1.48,ZA,1697078533
263,dhamar,14.5427,44.4051,285.42,45,4,2.82,YE,1697078534
264,fomboni,-12.28,43.7425,298.31,80,17,1.52,KM,1697078534
265,hasaki,35.7333,140.8333,296.09,50,47,4.03,JP,1697078534
266,vanino,49.0869,140.2543,289.22,42,48,3.32,RU,1697078535
267,moranbah,-22.0016,148.0466,304.32,22,85,6.92,AU,1697078535
268,pangoa,-12.1167,-73.0,296.09,73,96,1.54,PE,1697078535
269,mil'kovo,55.6078,37.7956,280.43,76,100,8.77,RU,1697078535
270,rampachodavaram,17.45,81.7667,301.1,70,8,0.43,IN,1697078536
271,egilsstadir,65.2653,-14.3948,272.1,86,0,1.54,IS,1697078246
272,kavaratti,10.5669,72.642,301.71,67,100,3.08,IN,1697078536
273,los frentones,-26.4077,-61.4137,286.3,87,100,6.24,AR,1697078537
274,belyy yar,53.6039,91.3903,282.09,81,100,2.0,RU,1697078537
275,nar'yan-mar,67.6713,53.087,274.32,76,10,4.02,RU,1697078241
276,luganville,-15.5333,167.1667,299.12,72,100,4.65,VU,1697078537
277,carnarvon,-24.8667,113.6333,299.32,45,39,7.51,AU,1697078238
278,pervomaysk,48.0443,30.8507,280.61,88,12,5.43,UA,1697078538
279,nishinoomote,30.7333,131.0,296.46,68,20,3.6,JP,1697078538
280,cill airne,52.05,-9.5167,283.4,91,98,1.34,IE,1697078539
281,floro,61.5996,5.0328,281.13,81,75,13.38,NO,1697078244
282,neral,19.0333,73.3167,300.58,74,6,0.82,IN,1697078539
283,st. john's,47.5649,-52.7093,285.91,96,75,2.06,CA,1697078539
284,urdinarrain,-32.6857,-58.8932,281.3,81,6,3.02,AR,1697078540
285,bhuban,20.8833,85.8333,301.8,66,1,1.5,IN,1697078540
286,sroda slaska,51.1641,16.5951,291.1,71,100,4.81,PL,1697078540
287,chipinge,-20.1883,32.6236,290.37,53,0,1.4,ZW,1697078541
288,zaozersk,69.4005,32.4476,273.17,93,100,11.27,RU,1697078541
289,dapa,9.7594,126.0531,302.31,72,61,2.95,PH,1697078541
290,san luis,-33.295,-66.3356,281.87,31,0,5.83,AR,1697078360
291,san patricio,28.017,-97.5169,296.95,88,91,2.41,US,1697078542
292,daru,-9.0763,143.2092,297.9,95,100,7.91,PG,1697078542
293,klyuchi,52.2667,79.1667,282.83,44,100,1.62,RU,1697078543
294,port lincoln,-34.7333,135.8667,289.48,57,12,8.18,AU,1697078543
295,murzuq,25.9155,13.9184,293.23,35,0,3.64,LY,1697078543
296,chernyshevskiy,63.0128,112.4714,276.14,88,100,2.16,RU,1697078543
297,novo aripuana,-5.1206,-60.3797,301.61,44,46,0.62,BR,1697078544
298,ploneour-lanvern,47.9,-4.2833,292.33,94,100,4.12,FR,1697078544
299,horta,38.5333,-28.6333,292.6,91,48,3.58,PT,1697078545
300,la passe,45.5549,-0.8967,286.28,60,78,2.45,FR,1697078545
301,bonito,-21.1211,-56.4819,301.93,47,48,2.32,BR,1697078546
302,kailahun,8.2833,-10.5667,294.77,100,100,0.55,SL,1697078546
303,sur,22.5667,59.5289,303.35,48,0,2.24,OM,1697078546
304,pachino,36.7186,15.0907,295.47,60,2,0.96,IT,1697078547
305,iskateley,67.6803,53.1512,274.27,76,10,4.02,RU,1697078547
306,santa cruz,-17.8,-63.1667,300.85,69,100,2.57,BO,1697078398
307,dabat,12.9842,37.765,286.07,64,99,1.41,ET,1697078548
308,nova vicosa,-17.8919,-39.3719,295.7,82,6,3.72,BR,1697078548
309,san luis de la loma,17.2706,-100.8939,298.36,85,97,1.6,MX,1697078548
310,acajutla,13.5928,-89.8275,299.85,83,100,1.48,SV,1697078549
311,kingston,17.997,-76.7936,302.68,79,20,5.66,JM,1697078379
312,tuy hoa,13.0833,109.3,301.64,79,100,4.87,VN,1697078255
313,diyarbakir,37.9158,40.2189,287.14,44,0,3.09,TR,1697078549
314,hailar,49.2,119.7,287.94,36,0,3.18,CN,1697078550
315,wynyard,-41.0,145.7167,285.84,69,100,5.96,AU,1697078550
316,notodden,59.5594,9.2585,282.33,73,7,4.15,NO,1697078550
317,afaahiti,-17.75,-149.2833,301.08,79,25,6.97,PF,1697078551
318,soe,-9.8607,124.284,303.1,33,3,5.26,ID,1697078551
319,svedala,55.5079,13.2352,284.27,77,0,6.69,SE,1697078551
320,kailua-kona,19.6406,-155.9956,301.13,78,75,4.63,US,1697078397
321,dzuunmod,48.2199,97.3744,280.59,43,0,1.49,MN,1697078552
322,badger,64.8,-147.5333,270.57,90,100,2.57,US,1697078366
323,yeed,4.55,43.0333,298.52,72,83,4.18,SO,1697078552
324,ghadamis,30.1337,9.5007,294.04,43,0,4.06,LY,1697078553
325,hobyo,5.3505,48.5268,299.68,82,87,4.1,SO,1697078553
326,avarua,-21.2078,-159.775,298.18,69,100,5.66,CK,1697078553
327,senise,40.1471,16.2889,290.2,62,0,1.05,IT,1697078554
328,barra dos coqueiros,-10.9089,-37.0386,297.16,88,75,2.57,BR,1697078554
329,urangan,-25.3,152.9,295.78,60,0,3.77,AU,1697078554
330,yulinshi,38.2906,109.7494,287.16,53,100,2.82,CN,1697078357
331,hereford,52.0568,-2.7148,284.29,96,100,2.88,GB,1697078555
332,talcahuano,-36.7167,-73.1167,283.97,76,0,4.63,CL,1697078555
333,oued fodda,36.185,1.533,292.96,77,0,0.0,DZ,1697078555
334,pogoanele,44.9167,27.0,281.84,78,9,3.32,RO,1697078556
335,guitiriz,43.1817,-7.8966,291.73,51,89,1.23,ES,1697078556
336,inari,68.906,27.0288,272.26,95,100,7.6,FI,1697078556
337,ghat,24.9647,10.1728,295.15,31,9,2.04,LY,1697078257
338,cabrobo,-8.5142,-39.31,297.19,60,4,8.91,BR,1697078557
339,degache,33.9761,8.2081,295.33,83,0,3.6,TN,1697078557
340,novyy urgal,51.0736,132.5642,283.7,49,12,1.61,RU,1697078557
341,wajir,1.7471,40.0573,298.24,69,100,5.0,KE,1697078558
342,al qitena,14.8648,32.3668,302.56,43,3,3.46,SD,1697078558
343,fauske,67.2588,15.3918,277.17,84,22,2.26,NO,1697078558
344,siwa oasis,29.2041,25.5195,294.76,62,0,1.68,EG,1697078558
345,yanbu,24.0891,38.0637,302.17,84,0,4.63,SA,1697078559
346,plyeshchanitsy,54.4222,27.8331,287.42,76,100,7.86,BY,1697078559
347,sittwe,20.15,92.9,300.31,83,36,3.13,MM,1697078559
348,fortuna,40.5982,-124.1573,286.34,91,100,2.06,US,1697078560
349,benson,51.6207,-1.1098,290.91,97,100,5.14,GB,1697078560
350,atar,20.5169,-13.0499,302.07,16,8,4.08,MR,1697078560
351,sbiba,35.5433,9.0737,289.54,54,0,0.81,TN,1697078560
352,zemio,5.0314,25.1361,294.11,95,100,0.58,CF,1697078561
353,suining,30.508,105.5733,289.57,95,100,2.47,CN,1697078358
354,ha'il,27.5219,41.6907,298.16,20,0,4.12,SA,1697078561
355,punta del este,-34.9667,-54.95,282.21,62,40,7.2,UY,1697078513
356,clarence town,-32.5833,151.7833,305.71,13,27,4.65,AU,1697078562
357,tura,25.5198,90.2201,300.11,74,0,0.26,IN,1697078562
358,namtsy,62.7161,129.6658,280.95,57,12,6.83,RU,1697078562
359,arraial do cabo,-22.9661,-42.0278,296.07,88,0,6.17,BR,1697078563
360,martapura,-3.4167,114.85,308.78,34,97,2.22,ID,1697078563
361,skovorodino,53.9833,123.9167,286.62,47,70,2.88,RU,1697078563
362,al muwayh,22.4333,41.7583,295.07,23,0,2.66,SA,1697078564
363,dunedin,-45.8742,170.5036,292.08,37,67,6.17,NZ,1697078564
364,nuuk,64.1835,-51.7216,273.49,74,75,7.72,GL,1697078564
365,nabire,-3.3667,135.4833,303.46,65,100,0.7,ID,1697078564
366,guanica,17.9716,-66.908,302.03,60,65,3.38,PR,1697078565
367,qui nhon,13.7667,109.2333,300.87,84,100,7.34,VN,1697078565
368,aberdeen,57.1437,-2.0981,279.63,93,47,2.57,GB,1697078565
369,maine soroa,13.2114,12.0241,302.29,25,17,3.7,NE,1697078566
370,al bardiyah,31.7561,25.0865,294.86,70,0,2.35,LY,1697078566
371,pandan,14.0453,124.1694,301.82,81,77,2.9,PH,1697078566
372,ladario,-19.0047,-57.6017,302.41,45,76,0.58,BR,1697078429
373,mossel bay,-34.1831,22.146,288.11,89,98,3.63,ZA,1697078567
374,ta`u,-14.2336,-169.5144,300.41,80,20,6.68,AS,1697078567
375,tralee,52.2704,-9.7026,282.63,89,87,2.13,IE,1697078568
376,morrinhos,-17.7311,-49.0994,298.27,57,23,1.61,BR,1697078568
377,sampang,-7.1872,113.2394,302.39,58,100,3.07,ID,1697078568
378,cherepovets,59.1333,37.9,279.14,93,100,8.49,RU,1697078569
379,campoverde,-8.4753,-74.8058,302.98,55,52,1.18,PE,1697078569
380,ciudad tula,23.0,-99.7167,290.31,86,78,1.94,MX,1697078569
381,canico,32.6333,-16.85,303.5,19,20,7.2,PT,1697078569
382,aljezur,37.3191,-8.8033,292.53,62,64,1.61,PT,1697078570
383,seven pagodas,12.6264,80.1722,303.18,70,87,1.66,IN,1697078570
384,mount gambier,-37.8333,140.7667,287.8,62,15,6.95,AU,1697078570
385,fu'an,27.0892,119.6453,297.85,60,92,0.81,CN,1697078571
386,soio,-6.1349,12.3689,298.02,86,100,3.7,AO,1697078571
387,galle,6.0367,80.217,299.59,78,96,2.61,LK,1697078571
388,lusambo,-4.9667,23.45,293.55,98,98,0.29,CD,1697078571
389,sinop,41.7711,34.8709,279.52,87,19,3.28,TR,1697078572
390,yacuiba,-22.038,-63.6797,291.53,61,100,4.99,BO,1697078572
391,ponta delgada,37.7333,-25.6667,293.55,88,40,5.66,PT,1697078572
392,saint-pierre,-21.3393,55.4781,294.97,64,0,1.54,RE,1697078572
393,lesozavodsk,45.4794,133.4244,291.17,40,9,3.66,RU,1697078573
394,chibougamau,49.9168,-74.3659,279.94,93,100,3.09,CA,1697078573
395,cooma,-36.2333,149.1333,296.42,29,4,8.42,AU,1697078573
396,chornomors'k,46.305,30.6548,287.22,61,11,6.37,UA,1697078574
397,vilyuchinsk,52.9306,158.4028,278.3,79,99,2.08,RU,1697078574
398,zhosaly,45.4878,64.0781,283.26,52,100,4.99,KZ,1697078574
399,semirom,31.4167,51.5667,284.21,42,2,0.81,IR,1697078574
400,freetown,8.484,-13.2299,298.99,89,75,3.6,SL,1697078575
401,bandiagara,14.3501,-3.6104,301.2,51,98,3.62,ML,1697078575
402,gebeit,21.0667,36.3167,296.37,72,0,2.13,SD,1697078575
403,greenville,35.6127,-77.3663,290.24,95,0,0.0,US,1697078301
404,bubaque,11.2833,-15.8333,300.77,81,99,2.93,GW,1697078576
405,mizhirah,16.8261,42.7333,304.06,66,20,0.0,SA,1697078576
406,nafada,11.0956,11.3327,299.96,62,50,2.62,NG,1697078576
407,mont-de-marsan,44.0,-0.6667,290.25,87,0,0.0,FR,1697078577
408,haiku-pauwela,20.9219,-156.3051,300.16,67,40,8.23,US,1697078577
409,fort-shevchenko,44.5086,50.263,283.45,67,88,12.17,KZ,1697078577
410,langtoucun,40.0261,124.3286,293.06,47,3,3.0,CN,1697078577
411,dori,14.0354,-0.0345,304.19,40,97,2.86,BF,1697078578
412,kapuskasing,49.4169,-82.4331,278.15,93,100,2.57,CA,1697078578
413,road town,18.4167,-64.6167,301.2,77,74,6.83,VG,1697078578
414,conduaga,8.862,117.4893,303.46,66,100,2.0,PH,1697078579
415,kabinda,-6.1333,24.4833,292.18,92,95,1.36,CD,1697078579
416,palmas,-10.2128,-48.3603,302.08,74,0,2.06,BR,1697078579
417,urucara,-2.5364,-57.76,301.52,44,40,0.94,BR,1697078579
418,qusmuryn,52.4503,64.6311,275.78,71,2,3.23,KZ,1697078580
419,boa vista,2.8197,-60.6733,303.14,54,0,3.09,BR,1697078580
420,kargopol',61.5071,38.9456,279.85,92,100,6.71,RU,1697078580
421,ketchikan,55.3422,-131.6461,285.14,81,0,0.0,US,1697078581
422,brisas de zicatela,15.8369,-97.0419,300.44,57,75,2.06,MX,1697078581
423,tommot,58.9564,126.2925,284.74,66,94,6.6,RU,1697078581
424,kristiansund,63.1115,7.732,280.51,81,75,11.83,NO,1697078582
425,kosh-agach,50.0,88.6667,279.7,44,11,0.41,RU,1697078582
426,abepura,-2.6333,140.5833,305.6,58,20,4.12,ID,1697078582
427,weiser,44.251,-116.9693,285.26,69,50,3.22,US,1697078582
428,windcrest,29.5155,-98.3803,295.32,87,100,4.12,US,1697078583
429,mogocha,53.7333,119.7667,283.01,58,74,2.24,RU,1697078583
430,vadso,70.0744,29.7487,276.24,75,75,12.35,NO,1697078583
431,grand-fort-philippe,50.9996,2.1078,289.29,95,100,4.1,FR,1697078584
432,liberal,37.0431,-100.921,296.23,53,0,7.72,US,1697078584
433,rawai,7.7797,98.3253,303.21,77,89,0.9,TH,1697078584
434,todos santos,23.45,-110.2167,299.63,79,3,2.88,MX,1697078585
435,arno,60.1167,18.6333,283.59,64,64,10.91,SE,1697078585
436,mayya,61.7333,130.2811,280.77,55,40,5.84,RU,1697078585
437,bonthe,7.5264,-12.505,297.97,89,100,1.33,SL,1697078586
438,vidalia,32.2177,-82.4135,291.12,88,100,0.0,US,1697078586
439,smithers,54.7804,-127.1743,283.33,93,75,1.54,CA,1697078518
440,karasburg,-28.0167,18.75,285.24,81,85,4.11,NA,1697078587
441,piestany,48.5948,17.8259,288.14,82,30,1.54,SK,1697078587
442,ingeniero jacobacci,-41.3427,-69.5448,281.99,42,0,3.35,AR,1697078587
443,las khorey,11.1595,48.1967,302.02,77,95,2.74,SO,1697078588
444,novopskov,49.5464,39.0899,275.54,54,93,4.53,UA,1697078588
445,sinjai,-5.1241,120.253,304.23,53,67,5.06,ID,1697078588
446,selfoss,63.9331,-20.9971,275.4,94,100,10.24,IS,1697078589
447,tyukhtet,56.5389,89.3011,280.24,67,100,5.07,RU,1697078589
448,taro,-8.3862,115.28,303.02,43,3,2.01,ID,1697078589
449,northam,51.0333,-4.2167,289.96,99,100,2.73,GB,1697078590
450,al bawiti,28.3492,28.8659,292.23,73,0,2.15,EG,1697078590
451,paghman,34.5875,68.9533,288.77,18,0,2.18,AF,1697078590
452,saudarkrokur,65.7461,-19.6394,271.96,81,100,3.25,IS,1697078590
453,santa eularia des riu,38.9846,1.5341,295.87,90,0,0.51,ES,1697078591
454,kalevala,65.2,31.1667,278.2,96,100,4.92,RU,1697078591
455,quellon,-43.1167,-73.6167,280.87,76,82,5.38,CL,1697078591
456,nowshahr,36.649,51.496,289.12,100,100,1.03,IR,1697078592
457,tillaberi,14.2117,1.4531,304.32,39,88,3.35,NE,1697078592
458,manismata,-2.4667,111.0333,305.72,50,98,2.5,ID,1697078592
459,dubbo,-32.25,148.6167,304.22,19,1,10.8,AU,1697078349
460,santa rosa de viterbo,-21.4728,-47.3631,298.97,51,98,0.7,BR,1697078593
461,copala,16.65,-98.9833,298.33,87,72,1.78,MX,1697078593
462,hamminkeln,51.7333,6.5833,290.35,89,100,4.14,DE,1697078593
463,mizdah,31.4451,12.9801,290.92,75,0,2.84,LY,1697078594
464,bodo,67.28,14.405,277.17,78,75,2.57,NO,1697078594
465,betio village,1.358,172.9211,305.17,70,24,2.71,KI,1697078594
466,belmonte,-15.8631,-38.8828,295.81,83,21,1.6,BR,1697078594
467,khandyga,62.6667,135.6,272.77,90,100,3.63,RU,1697078595
468,piscu vechi,43.9,23.1667,283.88,59,2,0.7,RO,1697078595
469,magadan,59.5667,150.8,274.0,74,5,4.02,RU,1697078595
470,powell river,49.8496,-124.5361,287.3,93,0,1.03,CA,1697078596
471,colchani,-20.3,-66.9333,283.44,23,100,3.42,BO,1697078596
472,saurimo,-9.6608,20.3916,291.95,90,88,0.99,AO,1697078596
473,corn island,12.1694,-83.0418,302.81,76,96,4.99,NI,1697078596
474,arkhangel'sk,64.5401,40.5433,273.22,91,100,6.25,RU,1697078597
475,puerto cabezas,14.0351,-83.3888,300.97,84,67,3.77,NI,1697078306
476,petropavlivka,48.4564,36.4367,275.89,48,42,4.35,UA,1697078597
477,el calafate,-50.3408,-72.2768,276.0,69,100,4.53,AR,1697078598
478,hualien city,23.9769,121.6044,299.2,82,65,5.1,TW,1697078598
479,khanty-mansiysk,61.0042,69.0019,274.21,75,0,4.02,RU,1697078411
480,savanna-la-mar,18.219,-78.1332,302.12,83,18,1.57,JM,1697078598
481,malvan,16.0667,73.4667,300.44,79,96,2.12,IN,1697078599
482,bardai,11.65,7.2333,295.69,58,69,1.04,NG,1697078599
483,altay,47.8667,88.1167,288.96,40,8,1.27,CN,1697078599
484,vila vicosa,38.7777,-7.4179,289.08,43,28,0.43,PT,1697078600
485,cadale,2.7603,46.3222,299.45,84,41,4.41,SO,1697078600
486,okha,53.5739,142.9478,284.21,71,100,8.1,RU,1697078600
487,pemangkat,1.1667,108.9667,302.61,71,100,2.21,ID,1697078601
488,bel ombre,-4.6167,55.4167,299.06,94,40,0.0,SC,1697078601
489,happy valley-goose bay,53.3168,-60.3315,284.32,93,100,1.03,CA,1697078601
490,mareeba,-17.0,145.4333,303.39,45,59,4.0,AU,1697078602
491,coracao de jesus,-16.6853,-44.365,297.18,45,29,2.79,BR,1697078602
492,yuzhno-kurilsk,44.0306,145.8556,286.14,70,37,4.13,RU,1697078602
493,upington,-28.4478,21.2561,294.36,46,0,5.66,ZA,1697078603
494,porto novo,6.4965,2.6036,300.05,91,95,1.57,BJ,1697078603
495,qamdo,31.1667,97.2333,275.74,71,98,2.07,CN,1697078603
496,xilin hot,43.9667,116.0333,286.31,39,0,2.58,CN,1697078603
497,eenhana,-17.4667,16.3333,293.85,63,56,1.75,NA,1697078604
498,broome,42.2506,-75.833,284.04,85,40,0.45,US,1697078604
499,priozersk,61.0393,30.1291,282.56,88,4,6.57,RU,1697078604
500,kralendijk,12.15,-68.2667,302.14,84,2,7.2,BQ,1697078605
501,ciudad bolivar,8.1222,-63.5497,301.02,71,42,3.92,VE,1697078605
502,kratie,12.4881,106.0188,303.01,73,71,2.39,KH,1697078605
503,luwuk,-0.9516,122.7875,304.52,52,73,3.81,ID,1697078606
504,paramonga,-10.6667,-77.8333,291.84,87,67,3.94,PE,1697078606
505,hammerfest,70.6634,23.6821,270.4,86,100,3.09,NO,1697078606
506,okhotsk,59.3833,143.3,272.66,57,100,2.81,RU,1697078607
507,penarroya-pueblonuevo,38.3,-5.2667,292.29,36,8,1.16,ES,1697078607
508,tot'ma,59.9747,42.7642,277.02,93,100,7.21,RU,1697078607
509,sao joao da barra,-21.6403,-41.0511,295.86,87,48,8.4,BR,1697078607
510,nelson bay,-32.7167,152.15,304.18,67,22,4.02,AU,1697078608
511,swift current,50.2834,-107.8014,283.6,40,0,8.75,CA,1697078608
512,onega,63.9061,38.1404,280.23,94,100,7.15,RU,1697078608
513,mariehamn,60.0973,19.9348,284.07,62,100,5.14,AX,1697078609
514,tual,-5.6667,132.75,299.73,81,86,7.25,ID,1697078609
515,aguadulce,8.25,-80.55,299.47,86,100,1.34,PA,1697078609
516,curvelo,-18.7564,-44.4308,297.59,58,15,2.22,BR,1697078610
517,lamu,-2.2717,40.902,295.27,86,97,2.98,KE,1697078610
518,cidreira,-30.1811,-50.2056,289.74,94,100,8.43,BR,1697078610
519,luau,-10.7073,22.2247,293.23,73,93,1.3,AO,1697078610
520,non thai,15.1981,102.0358,302.86,73,71,4.69,TH,1697078611
521,al burayqah,30.4062,19.5739,296.41,71,0,4.39,LY,1697078611
522,chachersk,52.9164,30.9179,281.1,60,100,7.88,BY,1697078611
523,black point,-34.6187,137.8972,290.79,49,27,8.62,AU,1697078612
524,rio grande,-32.035,-52.0986,285.34,77,100,9.24,BR,1697078612
525,leeton,-34.5667,146.4,292.53,61,85,9.66,AU,1697078612
526,itoman,26.1247,127.6694,302.16,60,75,7.72,JP,1697078613
527,mabaruma,8.2,-59.7833,297.93,85,0,1.34,GY,1697078613
528,callao,-12.0667,-77.15,291.33,77,75,4.12,PE,1697078613
529,matamata,-37.8106,175.7624,290.48,75,87,8.44,NZ,1697078614
530,muisne,0.6,-80.0333,298.11,86,82,3.88,EC,1697078614
531,ulaangom,49.9811,92.0667,285.5,46,8,0.77,MN,1697078614
532,new norfolk,-42.7826,147.0587,289.77,53,97,6.13,AU,1697078614
533,ar rutbah,33.0381,40.2848,293.5,55,0,3.36,IQ,1697078615
534,aptos,36.9772,-121.8994,290.55,70,0,1.79,US,1697078615
535,galliano,29.4422,-90.2992,289.82,90,100,8.42,US,1697078616
536,bani walid,31.7566,13.9942,290.09,90,0,1.08,LY,1697078616
537,gorontalo,0.5412,123.0595,305.91,47,52,4.84,ID,1697078616
538,sol'tsy,58.1239,30.3238,284.55,78,100,5.42,RU,1697078616
539,umluj,25.0213,37.2685,300.46,56,0,4.69,SA,1697078617
540,kalininsk,51.5,44.4758,273.93,74,98,5.42,RU,1697078617
541,homosassa springs,28.8036,-82.5759,298.27,88,100,0.0,US,1697078617
542,chilecito,-29.1619,-67.4974,284.21,38,0,3.0,AR,1697078618
543,al kharj,24.155,47.3346,298.47,16,0,2.56,SA,1697078618
544,tabas,33.5959,56.9244,296.27,27,42,0.0,IR,1697078618
545,orsa,54.5153,30.4053,284.95,82,100,9.26,BY,1697078618
546,caluula,11.9661,50.7569,301.55,66,6,1.57,SO,1697078619
547,orcopampa,-15.2661,-72.3417,283.48,64,100,2.13,PE,1697078619
548,eydhafushi,5.1033,73.0708,299.67,79,100,2.18,MV,1697078619
549,sassandra,4.95,-6.0833,297.13,95,79,2.08,CI,1697078619
550,ribadesella,43.4614,-5.0596,290.34,53,54,1.48,ES,1697078620
551,el alto,-4.2714,-81.2147,291.96,87,99,7.12,PE,1697078620
552,west hattiesburg,31.3191,-89.3751,289.27,94,100,8.23,US,1697078620
553,yamethin,20.4333,96.15,300.59,79,86,2.26,MM,1697078621
554,eureka,40.8021,-124.1637,286.49,89,2,2.92,US,1697078447
555,mount pleasant,32.7941,-79.8626,293.71,93,75,2.06,US,1697078621
556,talitsa,56.8804,60.0213,275.45,97,100,2.86,RU,1697078621
557,coquimbo,-29.9533,-71.3436,286.0,82,0,0.51,CL,1697078622
558,mohr,54.3528,9.7167,283.79,90,100,2.57,DE,1697078622
559,gamay,12.3854,125.2979,304.08,64,89,2.17,PH,1697078622
560,chimbote,-9.0853,-78.5783,291.77,88,100,4.62,PE,1697078622
561,remire-montjoly,4.9167,-52.2667,300.17,83,0,1.03,GF,1697078623
562,klaksvik,62.2266,-6.589,278.66,61,100,7.46,FO,1697078623
563,steamboat springs,40.485,-106.8317,279.23,90,100,0.45,US,1697078475
564,nadym,65.5333,72.5167,274.1,81,100,2.17,RU,1697078624
565,noosa heads,-26.3833,153.15,301.67,60,0,5.01,AU,1697078624
566,lichinga,-13.3128,35.2406,292.2,55,0,3.09,MZ,1697078624
