City_ID,City,Lat,Lng,Max Temp,Humidity,Cloudiness,Wind Speed,Country,Date
0,blackmans bay,-43.0167,147.3167,59.52,51,78,11.45,AU,1697168463
1,khanapur,15.6333,74.5167,78.42,59,42,8.75,IN,1697168463
2,port elizabeth,-33.918,25.5701,59.29,95,40,33.38,ZA,1697168463
3,grytviken,-54.2811,-36.5092,26.17,83,95,5.79,GS,1697168464
4,dinskaya,45.2178,39.2283,48.9,75,2,3.31,RU,1697168464
5,bethel,41.3712,-73.414,55.96,82,75,0.0,US,1697168464
6,kapoeta,4.7717,33.5903,76.89,66,100,3.22,SS,1697168465
7,iskateley,67.6803,53.1512,34.02,76,100,8.99,RU,1697168465
8,timbuktu,16.7735,-3.0074,86.83,18,51,4.34,ML,1697168465
9,port-aux-francais,-49.35,70.2167,37.35,80,93,21.07,TF,1697168466
10,mikomeseng,2.1361,10.6132,69.28,99,95,1.81,GQ,1697168466
11,west island,-12.1568,96.8225,80.58,74,74,18.41,CC,1697168466
12,puerto natales,-51.7236,-72.4875,39.29,96,63,6.8,CL,1697168467
13,antonio enes,-16.2325,39.9086,74.05,82,48,9.51,MZ,1697168467
14,rongelap,11.1635,166.8941,82.65,75,86,7.25,MH,1697168467
15,olonkinbyen,70.9221,-8.7187,30.4,84,95,21.39,SJ,1697168468
16,kailua-kona,19.6406,-155.9956,82.36,79,75,8.05,US,1697168194
17,bilibino,68.0546,166.4372,19.96,89,100,3.27,RU,1697168468
18,iqaluit,63.7506,-68.5145,29.93,92,75,2.3,CA,1697168469
19,albany,42.6001,-73.9662,50.41,79,30,5.61,US,1697168397
20,ishinomaki,38.4167,141.3,73.49,48,1,12.06,JP,1697168469
21,cooper's town,26.8667,-77.5167,83.57,87,100,17.29,BS,1697168470
22,ulladulla,-35.35,150.4667,69.76,44,30,6.85,AU,1697168470
23,isafjordur,66.0755,-23.124,30.13,90,100,23.67,IS,1697168470
24,batumi,41.6416,41.6359,51.78,93,0,16.11,GE,1697168471
25,stanley,54.868,-1.6985,47.79,91,20,5.75,GB,1697168471
26,sitka,57.0531,-135.33,57.09,67,100,24.16,US,1697168471
27,hailun,47.45,126.9333,65.8,35,0,11.03,CN,1697168472
28,okha,53.5739,142.9478,57.97,56,65,16.33,RU,1697168472
29,hermanus,-34.4187,19.2345,55.08,76,2,6.78,ZA,1697168472
30,turabah,21.2141,41.6331,73.49,20,0,4.32,SA,1697168473
31,primorskiy,43.0983,131.5875,66.16,40,3,5.82,RU,1697168473
32,waitangi,-43.9535,-176.5597,54.82,77,100,5.01,NZ,1697168473
33,cuamba,-14.8031,36.5372,74.39,47,100,4.65,MZ,1697168474
34,balezino,57.9796,53.0106,44.82,92,100,17.4,RU,1697168474
35,bainbridge,47.6262,-122.5212,59.18,88,0,3.0,US,1697168474
36,gadzhiyevo,69.2551,33.3362,38.68,75,100,21.7,RU,1697168474
37,hawaiian paradise park,19.5933,-154.9731,80.11,87,40,8.05,US,1697168475
38,mariestad,58.7097,13.8237,43.27,94,57,11.74,SE,1697168475
39,los altos,37.3852,-122.1141,66.07,62,0,6.91,US,1697168476
40,saint-georges,12.0564,-61.7485,83.88,84,20,12.66,GD,1697168476
41,ribeira grande,38.5167,-28.7,65.77,88,100,1.99,PT,1697168476
42,magadan,59.5667,150.8,33.53,53,1,7.0,RU,1697168476
43,coquimbo,-29.9533,-71.3436,55.13,87,20,2.3,CL,1697168477
44,yung shue wan,22.2333,114.1167,84.33,60,78,1.01,HK,1697168477
45,tongouson,5.0214,120.1328,84.36,68,91,6.11,PH,1697168478
46,petropavlovsk-kamchatsky,53.0452,158.6483,43.39,73,20,15.01,RU,1697168478
47,chany,55.3121,76.7647,41.72,57,11,12.8,RU,1697168478
48,sitia,35.2,26.0986,68.99,72,77,9.08,GR,1697168479
49,bel ombre,-4.6167,55.4167,80.44,89,20,4.61,SC,1697168479
50,college,64.8569,-147.8028,33.75,72,75,5.75,US,1697168479
51,keflavik,64.0049,-22.5624,37.83,75,75,28.77,IS,1697168480
52,yellowknife,62.456,-114.3525,45.41,100,100,3.44,CA,1697168444
53,utrik,11.2278,169.8474,82.76,77,47,10.71,MH,1697168480
54,linkou,45.3,130.2833,67.91,33,0,9.82,CN,1697168480
55,rockland,41.1668,-74.0496,59.65,88,6,4.32,US,1697168481
56,hondarribia,43.372,-1.7945,77.65,41,0,5.75,ES,1697168481
57,edinburgh of the seven seas,-37.0676,-12.3116,55.29,83,100,11.83,SH,1697168481
58,adamstown,-25.066,-130.1015,69.69,68,91,10.67,PN,1697168482
59,bredasdorp,-34.5322,20.0403,50.68,83,0,5.97,ZA,1697168482
60,ushuaia,-54.8,-68.3,44.26,76,40,31.07,AR,1697168482
61,mount pearl,47.5166,-52.7813,53.33,99,100,5.75,CA,1697168483
62,chos malal,-37.3781,-70.2709,55.62,36,42,3.96,AR,1697168483
63,longyearbyen,78.2186,15.6401,30.04,74,75,13.8,SJ,1697168483
64,qaqortoq,60.7167,-46.0333,36.01,70,100,5.77,GL,1697168484
65,westport,41.1415,-73.3579,58.75,74,0,5.99,US,1697168484
66,jijiga,9.35,42.8,66.97,64,3,2.48,ET,1697168484
67,avarua,-21.2078,-159.775,77.05,73,100,4.61,CK,1697168485
68,ust-nera,64.5667,143.2,10.22,95,97,5.01,RU,1697168485
69,badger,64.8,-147.5333,33.67,75,75,5.75,US,1697168485
70,udachny,66.4167,112.4,17.46,78,96,3.33,RU,1697168486
71,saint-philippe,-21.3585,55.7679,75.11,84,88,7.63,RE,1697168486
72,hithadhoo,-0.6,73.0833,81.43,73,82,12.66,MV,1697168486
73,wenshang,35.7275,116.4961,74.48,39,92,8.32,CN,1697168487
74,novodvinsk,64.4165,40.8122,39.78,94,99,5.95,RU,1697168487
75,uturoa,-16.7333,-151.4333,78.75,75,12,15.5,PF,1697168487
76,vadso,70.0744,29.7487,36.48,87,75,10.36,NO,1697168488
77,saldanha,-33.0117,17.9442,46.45,76,19,5.86,ZA,1697168488
78,acajutla,13.5928,-89.8275,79.47,86,65,2.28,SV,1697168488
79,isanlu-itedoijowa,8.2667,5.8333,71.69,88,100,2.53,NG,1697168489
80,papatowai,-46.5619,169.4708,64.08,46,26,11.34,NZ,1697168489
81,galesong,-5.3166,119.3661,95.02,58,34,8.63,ID,1697168489
82,lake havasu city,34.4839,-114.3224,75.81,17,0,16.11,US,1697168490
83,nova sintra,14.8667,-24.7167,74.79,77,100,0.87,CV,1697168490
84,alpine,32.835,-116.7664,64.58,84,100,3.44,US,1697168490
85,brush,40.2589,-103.6238,42.03,81,100,28.77,US,1697168490
86,saipan,15.1355,145.701,77.7,94,100,9.22,MP,1697168491
87,mata-utu,-13.2816,-176.1745,81.82,80,28,17.18,WF,1697168491
88,tiksi,71.6872,128.8694,24.12,96,100,6.24,RU,1697168491
89,puerto baquerizo moreno,-0.9,-89.6,74.46,81,13,8.77,EC,1697168492
90,douentza,14.9951,-2.9517,85.21,45,98,1.9,ML,1697168493
91,kingston,17.997,-76.7936,85.15,85,20,10.36,JM,1697168493
92,puerto ayora,-0.7393,-90.3518,74.3,86,44,7.85,EC,1697168493
93,whitewater,42.8336,-88.7323,54.27,88,100,18.61,US,1697168455
94,sisimiut,66.9395,-53.6735,33.42,72,100,10.96,GL,1697168494
95,palmer,42.1584,-72.3287,56.08,78,75,6.91,US,1697168494
96,raduzhny,62.0961,77.475,33.58,86,99,9.17,RU,1697168494
97,invercargill,-46.4,168.35,64.17,48,20,10.29,NZ,1697168495
98,homer,59.6425,-151.5483,39.07,93,100,0.0,US,1697168495
99,klyuchi,52.2667,79.1667,46.51,51,29,5.21,RU,1697168495
100,st. john's,47.5649,-52.7093,54.16,99,100,5.75,CA,1697168432
101,iskilip,40.7353,34.4739,48.97,57,0,1.07,TR,1697168496
102,veinticinco de mayo,-35.4323,-60.1727,38.98,73,0,6.82,AR,1697168496
103,remire-montjoly,4.9167,-52.2667,78.84,89,0,3.44,GF,1697168496
104,rusape,-18.5278,32.1284,67.01,40,21,8.16,ZW,1697168497
105,acapulco de juarez,16.8634,-99.8901,82.22,83,20,4.61,MX,1697168497
106,tsarevo,42.1667,27.85,53.96,74,0,4.59,BG,1697168497
107,port blair,11.6667,92.75,82.44,83,40,4.61,IN,1697168498
108,mugia,43.1041,-9.2179,71.91,93,100,23.44,ES,1697168498
109,newman,37.3138,-121.0208,66.43,61,99,1.99,US,1697168498
110,linfen,36.0889,111.5189,70.38,40,60,4.68,CN,1697168499
111,kudahuvadhoo,2.6708,72.8944,82.42,69,39,12.55,MV,1697168499
112,laojunmiao,39.8333,97.7333,55.44,21,6,5.08,CN,1697168499
113,saurimo,-9.6608,20.3916,65.59,86,63,3.15,AO,1697168499
114,namtsy,62.7161,129.6658,34.03,60,54,14.83,RU,1697168500
115,muang phonsavan,19.45,103.2167,74.03,69,91,2.93,LA,1697168500
116,mutuali,-14.8706,37.0044,74.17,51,100,2.84,MZ,1697168500
117,ad dilam,23.9915,47.1627,77.41,18,0,8.72,SA,1697168501
118,argo,37.6333,22.7333,61.05,56,0,3.27,GR,1697168501
119,la'ie,21.6477,-157.9253,84.16,69,1,4.0,US,1697168501
120,divo,5.8397,-5.36,71.8,99,100,1.21,CI,1697168502
121,thames,-37.1333,175.5333,63.59,64,98,5.97,NZ,1697168502
122,akureyri,65.6835,-18.0878,33.73,86,100,19.57,IS,1697168502
123,wailua homesteads,22.0669,-159.378,82.83,72,0,16.11,US,1697168503
124,chonchi,-42.6128,-73.8092,43.81,96,36,2.95,CL,1697168503
125,nar'yan-mar,67.6713,53.087,34.11,76,100,8.99,RU,1697168503
126,punta arenas,-53.15,-70.9167,44.71,81,20,18.41,CL,1697168503
127,talnakh,69.4865,88.3972,29.21,96,100,4.29,RU,1697168504
128,enewetak,11.3474,162.3373,83.5,67,55,10.89,MH,1697168504
129,georgetown,5.4112,100.3354,91.94,77,20,3.44,MY,1697168315
130,susuman,62.7833,148.1667,15.98,69,45,1.01,RU,1697168505
131,prineville,44.2999,-120.8345,51.78,72,0,0.0,US,1697168505
132,sandnessjoen,66.0217,12.6316,39.31,87,40,5.75,NO,1697168505
133,porto novo,6.4965,2.6036,75.02,89,100,3.02,BJ,1697168505
134,lerwick,60.1545,-1.1494,48.2,73,100,21.45,GB,1697168506
135,tual,-5.6667,132.75,80.89,83,52,12.68,ID,1697168506
136,hassi messaoud,31.6804,6.0729,69.66,46,0,6.91,DZ,1697168496
137,sakakah,29.9697,40.2064,69.37,34,4,6.08,SA,1697168507
138,jamestown,42.097,-79.2353,46.71,88,0,5.75,US,1697168231
139,namie,37.4833,141.0,72.72,43,0,4.38,JP,1697168507
140,kurchum,48.5722,83.6542,63.64,38,100,3.2,KZ,1697168507
141,emerald,-23.5333,148.1667,92.34,20,0,5.28,AU,1697168508
142,detmerode,52.3917,10.7505,61.84,97,75,5.75,DE,1697168508
143,happy valley-goose bay,53.3168,-60.3315,50.31,87,100,10.36,CA,1697168508
144,margaret river,-33.95,115.0667,71.44,46,0,7.45,AU,1697168509
145,pinhao,-25.6956,-51.6597,56.39,95,100,6.76,BR,1697168501
146,fale old settlement,-9.3852,-171.2468,83.77,77,35,19.3,TK,1697168509
147,nuuk,64.1835,-51.7216,35.42,86,100,12.1,GL,1697168510
148,lata,40.1629,-8.3327,64.08,43,100,2.73,PT,1697168510
149,broome,42.2506,-75.833,48.58,90,0,3.44,US,1697168510
150,nabire,-3.3667,135.4833,87.33,65,96,6.38,ID,1697168511
151,emboscada,-25.15,-57.35,62.4,67,100,13.8,PY,1697168511
152,kavieng,-2.5744,150.7967,84.7,70,62,4.41,PG,1697168511
153,dudinka,69.4058,86.1778,34.68,93,97,15.01,RU,1697168511
154,burang,30.25,81.1667,44.74,28,2,5.35,CN,1697168512
155,yuzhno-kurilsk,44.0306,145.8556,61.38,57,0,9.62,RU,1697168512
156,diamantino,-14.4086,-56.4461,81.61,48,53,2.48,BR,1697168471
157,vorgashor,67.5833,63.95,32.14,66,100,14.85,RU,1697168513
158,constantia,44.1833,28.65,50.7,76,17,9.53,RO,1697168373
159,shingu,33.7333,135.9833,71.17,52,69,5.61,JP,1697168513
160,crane,31.3974,-102.3501,76.73,28,0,7.0,US,1697168513
161,lompoc,34.6391,-120.4579,62.92,86,0,14.0,US,1697168514
162,inhambane,-23.865,35.3833,76.98,83,40,11.5,MZ,1697168514
163,dampit,-8.2116,112.7493,89.56,40,79,7.94,ID,1697168514
164,hamilton,39.1834,-84.5333,64.89,68,0,4.61,US,1697168515
165,rio brilhante,-21.8019,-54.5464,68.36,76,50,6.04,BR,1697168515
166,east london,-33.0153,27.9116,61.74,72,0,6.91,ZA,1697168516
167,surab,28.4914,66.2585,73.42,15,0,6.31,PK,1697168516
168,tughyl,47.7252,84.2063,61.0,49,76,9.53,KZ,1697168516
169,saugor,23.8333,78.7167,83.59,40,0,5.41,IN,1697168516
170,alakurtti,66.9672,30.3491,34.45,89,100,9.6,RU,1697168517
171,bardai,11.65,7.2333,72.52,68,100,5.28,NG,1697168517
172,polyarnyy,69.1989,33.4478,38.77,76,100,21.23,RU,1697168517
173,louth,53.3666,-0.0044,56.95,100,40,5.75,GB,1697168518
174,buulobarde,3.8538,45.5674,78.8,79,19,10.22,SO,1697168518
175,codrington,-38.2667,141.9667,58.86,75,100,17.92,AU,1697168518
176,tlacotepec,20.0667,-97.8667,65.43,89,55,6.13,MX,1697168519
177,howard springs,-12.497,131.047,92.82,27,8,4.76,AU,1697168519
178,la crosse,43.8014,-91.2396,49.42,91,100,10.36,US,1697168398
179,epernon,48.6103,1.6722,64.98,91,94,5.01,FR,1697168520
180,port lincoln,-34.7333,135.8667,63.84,60,25,13.2,AU,1697168520
181,xining,36.6167,101.7667,49.28,54,88,4.43,CN,1697168520
182,pocoes,-14.5297,-40.3653,61.88,95,42,3.69,BR,1697168521
183,anadyr,64.75,177.4833,39.7,80,75,13.42,RU,1697168521
184,usinsk,65.9939,57.5281,30.07,98,100,5.01,RU,1697168521
185,thompson,55.7435,-97.8558,37.56,93,20,0.0,CA,1697168522
186,guerrero negro,27.9769,-114.0611,65.32,75,0,10.07,MX,1697168522
187,egilsstadir,65.2653,-14.3948,37.31,81,75,29.93,IS,1697168522
188,padang,-0.9492,100.3543,84.25,77,87,6.89,ID,1697168523
189,mananjary,-21.2167,48.3333,74.28,81,44,4.12,MG,1697168523
190,mukalla,14.5425,49.1242,80.8,70,5,4.07,YE,1697168523
191,lebu,-37.6167,-73.65,48.45,87,2,18.66,CL,1697168524
192,mejit,10.2753,170.8646,82.2,78,95,8.3,MH,1697168524
193,mandera,3.9366,41.867,80.31,69,62,12.01,KE,1697168524
194,fisterra,42.9049,-9.2629,71.74,94,100,23.35,ES,1697168525
195,zhezqazghan,47.7833,67.7667,32.58,69,0,13.42,KZ,1697168525
196,darnah,32.767,22.6367,69.44,68,0,12.53,LY,1697168525
197,lazaro cardenas,17.9583,-102.2,77.83,89,9,4.25,MX,1697168526
198,tromso,69.6496,18.957,35.62,87,100,9.22,NO,1697168526
199,ponnani,10.767,75.9252,78.12,76,96,4.03,IN,1697168526
200,wuyo,10.3852,11.6968,74.68,72,35,1.07,NG,1697168527
201,mogadishu,2.0371,45.3438,79.99,82,23,8.21,SO,1697168527
202,ciudad rodrigo,40.6,-6.5333,60.53,44,41,3.6,ES,1697168527
203,tolanaro,-25.0319,46.9987,69.87,100,75,13.8,MG,1697168528
204,vilyuchinsk,52.9306,158.4028,44.87,85,97,6.58,RU,1697168528
205,port mathurin,-19.6833,63.4167,73.85,78,33,8.61,MU,1697168528
206,sassnitz,54.5167,13.65,48.79,76,51,13.53,DE,1697168529
207,armacao de buzios,-22.7469,-41.8817,73.45,96,100,14.92,BR,1697168529
208,zouerate,22.7187,-12.4521,80.82,16,1,11.05,MR,1697168529
209,manavalakurichi,8.1333,77.3,83.05,75,83,4.65,IN,1697168529
210,saynshand,44.8824,110.1163,55.76,28,0,7.67,MN,1697168530
211,carnarvon,-24.8667,113.6333,89.83,34,33,14.79,AU,1697168530
212,middelburg,-25.7751,29.4648,62.85,67,29,6.08,ZA,1697168530
213,palikir - national government center,6.9248,158.1611,81.45,83,100,4.61,FM,1697168531
214,howrah,22.5892,88.3103,89.6,62,20,6.91,IN,1697168531
215,walvis bay,-22.9575,14.5053,54.09,93,75,5.75,NA,1697168532
216,alofi,-19.0595,-169.9187,75.6,82,89,14.16,NU,1697168532
217,yacuiba,-22.038,-63.6797,59.2,56,100,2.89,BO,1697168291
218,luderitz,-26.6481,15.1594,56.17,78,3,14.14,NA,1697168533
219,kone,-21.0595,164.8658,75.34,65,66,2.66,NC,1697168533
220,bhag,29.0415,67.8239,85.66,39,0,4.34,PK,1697168534
221,ratnagiri,16.9833,73.3,84.43,68,24,4.0,IN,1697168534
222,itoman,26.1247,127.6694,83.17,61,20,17.27,JP,1697168534
223,amahai,-3.3333,128.9167,82.76,76,96,6.24,ID,1697168534
224,whitehorse,60.7161,-135.0538,42.03,92,100,18.41,CA,1697168535
225,daru,-9.0763,143.2092,78.08,86,100,12.21,PG,1697168535
226,kavaratti,10.5669,72.642,82.29,73,90,3.15,IN,1697168535
227,masterton,-40.9597,175.6575,57.88,62,49,9.22,NZ,1697168536
228,preobrazheniye,42.9019,133.9064,65.44,47,0,7.0,RU,1697168536
229,safford,32.834,-109.7076,72.52,30,0,16.11,US,1697168536
230,whitecourt,54.1502,-115.6855,49.24,81,0,3.44,CA,1697168537
231,fort-shevchenko,44.5086,50.263,51.08,73,0,15.86,KZ,1697168537
232,redkino,56.6475,36.2967,51.35,83,75,15.68,RU,1697168538
233,manta,-0.95,-80.7333,74.98,83,20,9.22,EC,1697168384
234,quellon,-43.1167,-73.6167,42.62,85,30,4.76,CL,1697168538
235,yeppoon,-23.1333,150.7333,89.38,54,0,14.99,AU,1697168539
236,arua,3.0201,30.9111,63.18,94,21,3.49,UG,1697168539
237,holualoa,19.6228,-155.9522,78.64,79,75,8.05,US,1697168539
238,kodiak,57.79,-152.4072,38.71,70,75,10.36,US,1697168540
239,bozeman,45.6796,-111.0386,45.68,92,100,8.05,US,1697168436
240,joshimath,30.5667,79.5667,69.01,51,1,5.75,IN,1697168540
241,gunnedah,-30.9833,150.25,77.47,14,0,10.85,AU,1697168541
242,shubarshi,48.5872,57.1869,42.8,63,7,9.78,KZ,1697168541
243,mournies,35.4764,24.0092,68.83,94,20,0.0,GR,1697168541
244,andorra,42.5,1.5,54.77,66,4,2.08,AD,1697168542
245,yanam,16.7333,82.2167,89.11,53,8,3.89,IN,1697168542
246,alice springs,-23.7,133.8833,78.35,14,0,12.66,AU,1697168542
247,juegang,32.3174,121.1855,66.9,84,100,2.55,CN,1697168542
248,gurupi,-11.7292,-49.0686,82.09,46,2,5.77,BR,1697168543
249,grand gaube,-20.0064,57.6608,74.37,71,45,1.99,MU,1697168543
250,mount gambier,-37.8333,140.7667,58.42,76,100,13.2,AU,1697168543
251,kasungu,-13.0333,33.4833,71.74,48,4,7.92,MW,1697168544
252,peace river,56.2501,-117.286,43.11,87,0,2.3,CA,1697168544
253,dori,14.0354,-0.0345,85.28,41,80,5.37,BF,1697168544
254,santa sylvina,-27.8326,-61.1375,51.06,50,0,7.36,AR,1697168545
255,ichinoseki,38.9167,141.1333,68.54,48,17,10.87,JP,1697168545
256,muynoq,43.7683,59.0214,52.05,60,5,6.71,UZ,1697168545
257,cabo san lucas,22.8909,-109.9124,79.9,75,20,12.66,MX,1697168308
258,heniches'k,46.1759,34.8034,52.84,69,61,7.76,UA,1697168546
259,malango,-2.9627,119.9001,84.65,50,60,5.37,ID,1697168546
260,tambopata,-12.7333,-69.1833,73.47,88,64,1.52,PE,1697168546
261,lamarque,-39.423,-65.7021,53.06,39,0,10.29,AR,1697168547
262,mormugao,15.4,73.8,81.66,83,40,4.61,IN,1697168547
263,pitimbu,-7.4706,-34.8086,79.39,83,15,11.79,BR,1697168547
264,sydney,-33.8679,151.2073,79.56,39,0,16.11,AU,1697168370
265,aroma,15.8167,36.1333,83.12,52,0,6.49,SD,1697168548
266,champerico,14.3,-91.9167,82.47,79,100,8.19,GT,1697168548
267,kirakira,-10.4544,161.9205,76.86,92,100,5.77,SB,1697168549
268,pryamitsyno,51.6561,35.9314,53.44,89,100,10.92,RU,1697168549
269,bangassou,4.7413,22.8184,70.34,98,100,0.92,CF,1697168549
270,geraldton,-28.7667,114.6,93.61,14,1,10.36,AU,1697168550
271,abbeville,50.1,1.8333,65.48,73,100,17.27,FR,1697168550
272,ginir,7.1333,40.7,59.74,85,51,3.27,ET,1697168550
273,wisla,49.6563,18.8591,59.47,92,100,4.79,PL,1697168551
274,celestun,20.8667,-90.4,82.81,88,21,6.82,MX,1697168551
275,namdrik,5.5994,168.1028,84.29,69,86,3.36,MH,1697168551
276,mount isa,-20.7333,139.5,94.77,16,76,9.22,AU,1697168552
277,huangmei,30.1924,116.025,74.55,57,57,2.68,CN,1697168552
278,ta`u,-14.2336,-169.5144,80.53,79,13,16.71,AS,1697168552
279,impfondo,1.6381,18.0667,70.63,92,49,2.44,CG,1697168553
280,troitsko-pechorsk,62.7084,56.1964,30.69,88,100,4.0,RU,1697168553
281,waiuku,-37.25,174.75,65.08,75,47,7.63,NZ,1697168553
282,bokovskaya,49.229,41.8306,46.85,42,100,12.19,RU,1697168554
283,vila velha,-20.3297,-40.2925,75.15,86,0,16.11,BR,1697168554
284,kupang,-10.1667,123.5833,91.98,46,20,12.66,ID,1697168554
285,pacific grove,36.6177,-121.9166,63.43,74,0,3.44,US,1697168555
286,loreto,22.2667,-101.9667,66.99,48,97,6.51,MX,1697168555
287,wakkanai,45.4094,141.6739,69.78,60,20,19.57,JP,1697168555
288,lensk,60.7253,114.9278,41.72,81,100,17.0,RU,1697168556
289,la passe,45.5549,-0.8967,64.63,47,16,11.65,FR,1697168556
290,vila do maio,15.1333,-23.2167,79.59,76,100,2.59,CV,1697168556
291,chaiya,9.3862,99.1986,88.43,67,97,4.03,TH,1697168557
292,olney,39.1532,-77.0669,57.72,86,75,0.0,US,1697168557
293,dakhla,23.6848,-15.958,71.42,76,0,13.82,EH,1697168557
294,sao vicente,-23.9631,-46.3919,73.58,26,100,6.04,BR,1697168558
295,beni,0.5,29.4667,61.12,96,13,2.8,CD,1697168558
296,sarakhs,36.5449,61.1577,51.94,93,100,0.0,IR,1697168558
297,atafu village,-8.5421,-172.5159,83.46,78,100,17.2,TK,1697168559
298,percut,3.6253,98.864,84.42,75,90,3.8,ID,1697168559
299,hadibu,12.65,54.0333,80.71,80,64,5.37,YE,1697168559
300,lospalos,-8.5186,127.0025,86.95,49,38,9.04,TL,1697168560
301,nemuro,43.3236,145.575,59.97,66,0,11.54,JP,1697168560
302,katol,21.2667,78.5833,82.42,50,62,4.32,IN,1697168560
303,ilulissat,69.2167,-51.1,26.62,63,100,1.14,GL,1697168561
304,afaahiti,-17.75,-149.2833,80.47,80,9,14.32,PF,1697168561
305,praia da vitoria,38.7333,-27.0667,63.75,88,20,4.9,PT,1697168561
306,patnanungan,14.7833,122.1833,82.6,81,90,15.52,PH,1697168562
307,yorkton,51.2167,-102.4677,42.64,81,100,4.61,CA,1697168548
308,labrador city,52.9463,-66.9114,40.91,100,100,2.3,CA,1697168409
309,kiunga,-6.1219,141.2906,93.06,51,87,3.91,PG,1697168563
310,kirensk,57.7853,108.1119,41.02,73,100,5.01,RU,1697168563
311,selfoss,63.9331,-20.9971,32.09,80,24,15.32,IS,1697168563
312,olyokminsk,60.3736,120.4264,38.98,95,99,8.99,RU,1697168564
313,amlapura,-8.45,115.6167,84.97,63,94,7.31,ID,1697168564
314,fort st. john,56.2499,-120.8529,48.09,71,20,8.05,CA,1697168449
315,yamethin,20.4333,96.15,82.53,80,15,5.37,MM,1697168565
316,vernon,50.2581,-119.2691,52.75,76,5,4.61,CA,1697168565
317,okakarara,-20.5833,17.4333,59.72,24,4,4.54,NA,1697168565
318,sheridan,44.8333,-106.9173,43.18,94,100,9.22,US,1697168565
319,tara,56.8944,74.371,35.98,81,90,7.0,RU,1697168566
320,amboasary,-25.0333,46.3833,73.69,78,20,6.46,MG,1697168566
321,necochea,-38.5473,-58.7368,43.74,72,0,11.1,AR,1697168567
322,kayanza,-3.0667,29.6667,58.35,91,69,2.13,BI,1697168567
323,bandar seri begawan,4.9403,114.9481,87.78,74,75,8.99,BN,1697168567
324,katsuren-haebaru,26.3369,127.8719,83.17,59,20,14.97,JP,1697168568
325,tarawa,1.419,172.984,89.69,66,20,5.75,KI,1697168568
326,iwaki,37.05,140.8833,74.01,41,12,1.01,JP,1697168568
327,nova vicosa,-17.8919,-39.3719,74.34,85,11,13.62,BR,1697168568
328,ancud,-41.8697,-73.8203,42.49,86,43,3.15,CL,1697168569
329,toliara,-23.35,43.6667,77.4,61,0,5.82,MG,1697168569
330,oranjemund,-28.55,16.4333,57.09,92,82,10.71,NA,1697168569
331,pisco,-13.7,-76.2167,65.01,82,0,4.61,PE,1697168292
332,kaohsiung,22.6163,120.3133,87.75,62,40,6.91,TW,1697168544
333,sabzevar,36.2126,57.6819,45.68,93,0,16.11,IR,1697168570
334,mana,5.6592,-53.7767,79.25,84,1,7.14,GF,1697168571
335,callao,-12.0667,-77.15,66.72,82,75,10.36,PE,1697168571
336,neelankarai,12.9455,80.2575,87.04,84,40,6.91,IN,1697168571
337,ouarzazat,30.9189,-6.8934,68.29,28,20,1.14,MA,1697168572
338,okahandja,-21.9833,16.9167,58.35,19,0,2.01,NA,1697168572
339,kapa'a,22.0752,-159.319,84.18,71,0,16.11,US,1697168572
340,aoulef,26.9667,1.0833,77.52,24,1,17.69,DZ,1697168573
341,wang nam yen,13.5033,102.1812,84.54,73,88,4.7,TH,1697168573
342,okhotsk,59.3833,143.3,30.13,80,100,8.48,RU,1697168573
343,aykhal,66.0,111.5,24.06,78,93,11.01,RU,1697168574
344,hiratacho,35.4333,132.8167,71.56,49,75,13.8,JP,1697168574
345,san antonio de pale,-1.4014,5.6325,77.92,82,95,13.22,GQ,1697168574
346,whakatane,-37.9585,176.9854,70.88,77,0,5.01,NZ,1697168400
347,tobelo,1.7284,128.0095,85.82,65,92,7.27,ID,1697168575
348,torbeyevo,54.0797,43.2473,46.71,87,100,16.8,RU,1697168575
349,huedin,46.8667,23.05,43.21,64,100,4.45,RO,1697168575
350,phan thiet,10.9333,108.1,86.18,69,95,3.36,VN,1697168571
351,ndende,-2.4008,11.3581,74.03,98,100,1.83,GA,1697168576
352,port alfred,-33.5906,26.891,61.18,78,1,8.01,ZA,1697168576
353,klaksvik,62.2266,-6.589,38.32,72,80,4.88,FO,1697168577
354,sola,-13.8833,167.55,78.08,81,100,16.06,VU,1697168577
355,flying fish cove,-10.4217,105.6791,82.08,78,100,10.36,CX,1697168577
356,high rock,26.6208,-78.2833,84.22,85,100,15.84,BS,1697168577
357,big spring,32.2504,-101.4787,76.23,61,0,8.05,US,1697168578
358,minot,48.2325,-101.2963,48.02,76,100,8.05,US,1697168450
359,thinadhoo,0.5333,72.9333,81.5,72,21,13.13,MV,1697168578
360,puerto yuca,2.9383,-73.2083,74.97,88,24,3.58,CO,1697168579
361,putina,-15.4667,-69.4333,45.18,76,11,8.52,PE,1697168579
362,imbituba,-28.24,-48.6703,63.9,90,100,10.0,BR,1697168579
363,aasiaat,68.7098,-52.8699,23.52,92,100,6.58,GL,1697168580
364,rudnichnyy,59.617,52.4703,42.91,88,99,11.27,RU,1697168580
365,ocean city,39.2776,-74.5746,60.98,81,7,1.99,US,1697168580
366,bahia honda,22.9036,-83.1592,79.21,87,100,6.6,CU,1697168581
367,kebili,33.7044,8.969,67.12,56,0,2.08,TN,1697168581
368,marshalltown,42.0494,-92.908,59.23,93,100,19.57,US,1697168581
369,juneau,58.3019,-134.4197,51.8,93,100,27.63,US,1697168342
370,punta alta,-38.8759,-62.0736,53.08,40,0,13.35,AR,1697168286
371,chibougamau,49.9168,-74.3659,44.22,93,100,6.91,CA,1697168582
372,kromeriz,49.2979,17.3931,60.24,93,100,3.71,CZ,1697168582
373,sarny,51.338,26.6019,48.11,91,68,5.17,UA,1697168583
374,beichengqu,40.4394,113.1536,54.45,42,10,5.79,CN,1697168583
375,opuwo,-18.0607,13.84,65.55,33,6,2.89,NA,1697168583
376,narasannapeta,18.4167,84.05,84.61,66,8,3.58,IN,1697168584
377,ust'-talovka,50.5493,81.85,44.28,85,100,9.08,KZ,1697168584
378,loch garman,52.3342,-6.4575,54.9,100,100,4.0,IE,1697168584
379,antsiranana,-12.2787,49.2917,75.96,73,20,11.5,MG,1697168585
380,tralee,52.2704,-9.7026,51.13,91,100,10.11,IE,1697168585
381,kayangel,8.0823,134.7173,83.05,79,79,17.05,PW,1697168585
382,olinda,-8.0089,-34.8553,80.33,78,75,9.22,BR,1697168586
383,la ronge,55.1001,-105.2842,44.85,93,100,2.3,CA,1697168586
384,souillac,-20.5167,57.5167,73.78,78,75,0.0,MU,1697168586
385,pervomaysk,48.0443,30.8507,51.76,84,99,5.46,UA,1697168587
386,tofol,5.3248,163.0078,83.25,74,45,7.78,FM,1697168587
387,vikindu,-7.0067,39.2985,74.39,83,64,1.07,TZ,1697168587
388,naracoorte,-36.9579,140.7383,60.1,67,100,15.64,AU,1697168588
389,nikolayevsk-on-amure,53.1406,140.73,62.55,46,23,13.27,RU,1697168588
390,edd,13.9297,41.6925,85.26,73,15,3.56,ER,1697168588
391,breyten,-26.3018,29.987,56.5,81,30,3.74,ZA,1697168589
392,geidam,12.897,11.9304,81.01,42,82,2.95,NG,1697168589
393,matanzas,23.0411,-81.5775,77.76,94,20,3.44,CU,1697168589
394,marti,22.9475,-80.9203,78.6,92,100,6.11,CU,1697168589
395,fish town,5.1964,-7.8756,71.1,99,94,1.21,LR,1697168590
396,ujae,8.9322,165.7642,82.94,75,100,4.45,MH,1697168590
397,tubarjal,30.4999,38.216,68.56,49,0,7.9,SA,1697168590
398,bozhou,33.8772,115.7703,74.25,43,62,5.26,CN,1697168591
399,kardla,58.9978,22.7492,48.06,87,0,3.44,EE,1697168591
400,qamdo,31.1667,97.2333,37.85,34,99,3.74,CN,1697168591
401,manggar,-2.8833,108.2667,85.6,64,44,14.38,ID,1697168592
402,urucara,-2.5364,-57.76,80.38,63,100,4.05,BR,1697168592
403,tazovsky,67.4667,78.7,33.3,89,100,7.31,RU,1697168592
404,egersund,58.4513,5.9997,50.09,76,100,16.28,NO,1697168593
405,batang,-6.4846,110.7083,86.94,57,80,12.24,ID,1697168593
406,madang,-5.2246,145.7966,86.97,62,61,7.63,PG,1697168593
407,sitangkai,4.6628,119.3928,84.0,69,77,6.69,PH,1697168594
408,manghit,42.1156,60.0597,40.98,66,6,5.44,UZ,1697168594
409,xinyuan,37.3,99.0,36.45,46,25,17.69,CN,1697168594
410,huinan,42.6225,126.2614,63.99,43,100,2.21,CN,1697168595
411,salalah,17.0151,54.0924,77.09,78,0,2.3,OM,1697168595
412,nagqu,31.5,92.0,35.58,13,0,5.53,CN,1697168595
413,nuku'alofa,-21.1333,-175.2,79.14,65,75,14.97,TO,1697168596
414,severo-yeniseyskiy,60.3725,93.0408,38.57,91,100,14.0,RU,1697168596
415,el ksour,35.8961,8.8849,63.23,38,0,3.85,TN,1697168596
416,whangarei,-35.7317,174.3239,65.52,51,41,4.0,NZ,1697168597
417,lusambo,-4.9667,23.45,70.77,79,89,1.99,CD,1697168597
418,mantua,45.1667,10.7833,65.01,88,96,1.01,IT,1697168597
419,brigantine,39.4101,-74.3646,61.0,85,6,3.0,US,1697168598
420,jayrud,33.8074,36.7404,61.75,72,0,0.45,SY,1697168598
421,gowurdak,37.8124,66.0466,50.18,43,73,12.03,TM,1697168598
422,arraial do cabo,-22.9661,-42.0278,71.92,97,100,17.29,BR,1697168599
423,visby,57.6409,18.296,48.42,81,0,11.5,SE,1697168599
424,tateyama,34.9833,139.8667,69.87,48,0,11.27,JP,1697168599
425,puerto santa,-8.9906,-78.6456,64.13,89,55,8.05,PE,1697168599
426,okhtyrka,50.3104,34.8988,52.43,84,100,9.75,UA,1697168600
427,fort bragg,35.139,-79.006,60.35,97,0,0.0,US,1697168600
428,dryden,49.7833,-92.7503,46.69,76,100,6.91,CA,1697168516
429,at taj,24.2049,23.2857,68.7,36,2,9.71,LY,1697168601
430,aldan,58.6031,125.3894,36.19,96,100,11.99,RU,1697168601
431,karratha,-20.7377,116.8463,97.61,15,2,15.88,AU,1697168602
432,zhanibek,49.4167,46.85,42.51,57,98,17.25,KZ,1697168602
433,paramirim,-13.4425,-42.2389,72.64,45,3,1.59,BR,1697168602
434,sabha,27.0377,14.4283,69.51,36,0,9.62,LY,1697168603
435,ola,59.5833,151.2833,34.14,40,3,5.23,RU,1697168603
436,shakhovskaya,56.0283,35.5097,43.95,78,61,16.96,RU,1697168603
437,ivdel',60.6911,60.4206,39.18,59,100,8.01,RU,1697168604
438,challapata,-18.9,-66.7667,52.7,58,100,1.9,BO,1697168604
439,alto barinas,8.5931,-70.2261,78.24,77,81,3.67,VE,1697168604
440,isangel,-19.55,169.2667,75.76,78,100,8.12,VU,1697168605
441,zaragoza,41.6561,-0.8773,64.02,56,0,4.61,ES,1697168388
442,saudarkrokur,65.7461,-19.6394,32.67,88,98,23.85,IS,1697168605
443,arteche,12.2645,125.4048,83.75,79,41,4.81,PH,1697168606
444,bulayevo,54.9056,70.4439,41.47,53,65,19.13,KZ,1697168606
445,o rosal,41.9354,-8.8368,68.95,85,100,11.12,ES,1697168607
446,bonthe,7.5264,-12.505,77.52,88,100,4.56,SL,1697168607
447,san patricio,28.017,-97.5169,80.46,89,0,7.23,US,1697168607
448,lihue,21.9789,-159.3672,83.44,72,0,16.11,US,1697168608
449,blackfoot,43.1905,-112.345,48.06,75,86,4.32,US,1697168608
450,borogontsy,62.6683,131.1683,31.28,87,97,5.99,RU,1697168608
451,flin flon,54.7682,-101.865,45.88,77,97,3.8,CA,1697168608
452,santa terezinha,-29.9002,-50.0904,57.06,76,100,8.43,BR,1697168609
453,ameca,20.55,-104.0333,63.45,97,20,4.34,MX,1697168609
454,labytnangi,66.6572,66.4183,30.45,96,100,11.39,RU,1697168609
455,jincheng,35.5022,112.8328,68.58,37,100,7.25,CN,1697168610
456,gamba,-2.65,10.0,75.85,92,100,3.89,GA,1697168610
457,sale,34.0389,-6.8166,65.75,94,40,0.0,MA,1697168610
458,ishigaki,24.3448,124.1572,84.33,61,75,14.97,JP,1697168611
459,haiku-pauwela,20.9219,-156.3051,80.62,75,40,19.57,US,1697168611
460,dunedin,-45.8742,170.5036,64.49,48,98,10.6,NZ,1697168421
461,hastings,50.8552,0.5729,65.28,50,100,25.81,GB,1697168612
462,jining,35.405,116.5814,74.61,39,70,7.58,CN,1697168612
463,port augusta,-32.5,137.7667,68.92,46,16,16.02,AU,1697168612
464,tanout,14.9709,8.8879,81.28,23,30,12.97,NE,1697168612
465,sawakin,19.1059,37.3321,82.83,74,20,9.46,SD,1697168613
466,bondo,3.8146,23.6866,68.79,99,87,1.14,CD,1697168613
467,kununurra,-15.7667,128.7333,100.38,27,72,13.8,AU,1697168477
468,nadym,65.5333,72.5167,32.76,74,100,16.04,RU,1697168614
469,salinopolis,-0.6136,-47.3561,79.41,80,94,9.62,BR,1697168614
470,lesosibirsk,58.2358,92.4828,42.91,90,100,5.93,RU,1697168614
471,santana,-0.0583,-51.1817,84.38,74,40,13.8,BR,1697168615
472,yamada,39.4667,141.95,69.31,45,3,1.23,JP,1697168615
473,urangan,-25.3,152.9,72.57,66,0,18.86,AU,1697168615
474,tomatlan,19.9333,-105.25,74.07,94,1,2.68,MX,1697168616
475,matoury,4.8483,-52.3317,78.76,89,0,3.44,GF,1697168616
476,uusikaupunki,60.8004,21.4084,47.79,74,18,14.0,FI,1697168616
477,myeik,12.4333,98.6,84.78,73,100,1.05,MM,1697168616
478,isla vista,34.4133,-119.861,71.29,57,0,4.61,US,1697168617
479,rzhaksa,52.1338,42.0264,47.86,64,100,17.05,RU,1697168617
480,usogorsk,63.4106,48.6872,42.67,92,100,10.71,RU,1697168617
481,spring creek,40.7266,-115.5859,40.3,55,2,3.33,US,1697168618
482,krasnoshchekovo,51.6708,82.7289,42.17,91,100,4.41,RU,1697168618
483,touros,-5.1989,-35.4608,77.95,82,5,14.32,BR,1697168441
484,markovo,57.3206,107.0881,43.0,77,100,2.53,RU,1697168619
485,longford,53.7333,-7.8,47.71,82,100,5.39,IE,1697168619
486,fortuna,40.5982,-124.1573,54.66,93,20,6.91,US,1697168443
487,alesund,62.4723,6.1549,50.14,62,75,12.66,NO,1697168620
488,wewak,-3.5534,143.6268,86.22,67,56,7.83,PG,1697168620
489,bhainsdehi,21.6467,77.6325,80.15,48,33,3.44,IN,1697168620
490,kanniyakumari,8.0833,77.5667,82.2,77,78,7.54,IN,1697168620
491,saint-leu,-21.15,55.2833,74.95,90,71,5.88,RE,1697168621
492,mercedes,-34.6515,-59.4307,45.03,77,0,6.93,AR,1697168621
493,el kala,36.8956,8.4433,63.01,44,0,3.94,DZ,1697168621
494,quepos,9.4236,-84.1652,79.63,82,99,2.62,CR,1697168622
495,eraan,9.0629,117.7016,85.14,75,71,5.46,PH,1697168622
496,puerto aysen,-45.4,-72.7,41.31,96,99,2.33,CL,1697168622
497,el calafate,-50.3408,-72.2768,40.39,78,2,8.99,AR,1697168623
498,zakamensk,50.3741,103.2863,56.61,44,3,4.03,RU,1697168623
499,ambodifotatra,-16.9833,49.85,71.65,100,20,2.3,MG,1697168623
500,taoudenni,22.6783,-3.9836,80.28,18,0,10.78,ML,1697168623
501,penalva,-3.2942,-45.1736,73.47,92,16,3.36,BR,1697168624
502,tocopilla,-22.092,-70.1979,63.5,76,32,0.83,CL,1697168624
503,ebon,4.582,168.6964,84.0,71,100,3.09,MH,1697168624
504,namibe,-15.1961,12.1522,65.59,85,69,4.41,AO,1697168625
505,rivera,-30.9053,-55.5508,42.39,83,0,8.1,UY,1697168625
506,vorkuta,67.5,64.0,32.54,66,100,13.09,RU,1697168625
507,al kharijah,25.4514,30.5464,71.44,44,0,8.25,EG,1697168626
508,kasson,44.03,-92.7507,46.85,89,100,19.57,US,1697168626
509,trinity,28.1808,-82.6818,82.08,93,88,1.99,US,1697168427
510,hasaki,35.7333,140.8333,72.0,42,1,13.91,JP,1697168627
511,ust'-kulom,61.6864,53.6902,39.29,97,100,8.99,RU,1697168627
512,jutai,-5.1833,-68.9,73.58,98,100,2.62,BR,1697168627
513,nyandoma,61.669,40.1991,35.74,95,100,12.19,RU,1697168628
514,vilhena,-12.7406,-60.1458,74.57,70,58,1.99,BR,1697168628
515,san julian,21.0167,-102.1667,59.4,68,3,6.49,MX,1697168629
516,yuma,32.7253,-114.6244,78.96,18,0,5.75,US,1697168629
517,taulaga,-11.0553,-171.0883,82.44,80,32,20.02,AS,1697168629
518,dhankuta,26.9833,87.3333,70.77,71,0,1.54,NP,1697168630
519,cole harbour,44.6724,-63.4751,56.71,92,97,6.91,CA,1697168630
520,ingeniero jacobacci,-41.3427,-69.5448,52.32,44,71,4.47,AR,1697168630
521,eregli,37.5133,34.0467,51.91,60,0,1.05,TR,1697168630
522,tepelene,40.2958,20.0192,61.16,83,0,1.07,AL,1697168631
523,cidreira,-30.1811,-50.2056,57.38,71,99,10.0,BR,1697168631
524,loacan,16.55,120.6667,81.39,60,46,3.56,PH,1697168631
525,rio do sul,-27.2142,-49.6431,60.39,97,100,2.95,BR,1697168632
526,nola,40.922,14.5329,69.64,95,19,0.78,IT,1697168632
527,chintamani,13.4,78.0667,75.54,42,43,7.23,IN,1697168632
528,akjoujt,19.6969,-14.4164,80.11,35,43,8.1,MR,1697168633
529,karema,-6.8205,30.4389,76.39,68,99,4.52,TZ,1697168633
530,portland,45.5234,-122.6762,64.89,63,0,10.0,US,1697168164
531,prado,-17.3411,-39.2208,73.62,88,7,11.63,BR,1697168633
532,general conesa,-40.1,-64.4333,47.66,65,2,11.01,AR,1697168634
533,illapel,-31.6308,-71.1653,59.52,59,0,2.04,CL,1697168634
534,ixtapa,20.7,-105.2,77.23,100,100,6.91,MX,1697168635
535,novo aripuana,-5.1206,-60.3797,79.23,62,47,3.22,BR,1697168635
536,cam ranh,11.9214,109.1591,85.96,62,20,1.14,VN,1697168578
537,walhain-saint-paul,50.6263,4.6984,65.17,93,75,12.66,BE,1697168636
538,uberlandia,-18.9186,-48.2772,81.61,57,0,3.44,BR,1697168407
539,pimentel,-6.8367,-79.9342,66.49,82,0,18.41,PE,1697168636
540,harstad,68.799,16.5293,37.15,93,92,11.01,NO,1697168637
541,kuanda,56.3161,116.0806,50.79,40,49,6.73,RU,1697168637
542,ridgecrest,35.6225,-117.6709,62.46,26,20,8.05,US,1697168388
543,najran,17.4924,44.1277,70.45,28,2,3.0,SA,1697168638
544,chiras,35.4167,65.9823,41.49,72,76,1.07,AF,1697168638
545,saraykent,39.6936,35.5111,43.77,62,44,2.37,TR,1697168638
546,watsa,3.0372,29.5355,62.06,95,3,2.37,CD,1697168639
547,krompachy,48.9145,20.8751,58.82,89,100,0.67,SK,1697168639
548,lorengau,-2.0226,147.2712,85.37,69,25,8.28,PG,1697168639
549,pamandzi,-12.7967,45.2794,76.78,94,20,4.61,YT,1697168640
550,savalou,7.9281,1.9756,73.2,98,99,3.15,BJ,1697168640
551,kayyerkan,69.3786,87.7439,29.3,100,99,2.44,RU,1697168640
552,kroonstad,-27.6504,27.2349,49.08,74,0,4.74,ZA,1697168641
553,kapuskasing,49.4169,-82.4331,41.09,100,75,6.91,CA,1697168641
554,bolkhov,53.4433,36.0044,46.6,90,52,11.68,RU,1697168641
555,prainha,-1.8,-53.48,77.61,66,56,2.62,BR,1697168642
556,laboulaye,-34.1266,-63.3912,45.77,37,0,9.01,AR,1697168642
557,labuan,5.2767,115.2417,86.36,79,40,5.01,MY,1697168642
558,dum duma,27.5667,95.5667,80.53,75,32,1.66,IN,1697168643
559,xai-xai,-25.0519,33.6442,71.1,87,98,8.37,MZ,1697168643
560,aquidauana,-20.4711,-55.7872,69.78,70,75,6.49,BR,1697168643
561,mil'kovo,55.6078,37.7956,47.55,81,64,16.02,RU,1697168644
562,mbanza kongo,-6.267,14.2401,72.14,88,81,3.47,AO,1697168644
563,batarasa,8.6617,117.6222,84.85,74,47,9.37,PH,1697168644
564,greeneville,36.1632,-82.831,60.94,87,40,0.0,US,1697168645
565,farah,32.5,62.5,66.16,37,2,6.22,AF,1697168645
566,adh dhayd,25.2881,55.8816,84.92,44,0,1.54,AE,1697168645
567,greeley,40.4233,-104.7091,46.38,65,75,26.46,US,1697168377
568,gagnoa,6.1293,-5.9437,71.71,100,100,1.74,CI,1697168646
569,xiahu,26.6106,119.9483,75.0,71,35,5.79,CN,1697168646
570,tura,25.5198,90.2201,82.24,59,0,2.75,IN,1697168646
571,barcelos,41.5388,-8.6151,71.85,60,100,5.77,PT,1697168647
572,nambucca heads,-30.65,153.0,75.2,50,0,13.89,AU,1697168647
573,brookings,44.3114,-96.7984,45.18,96,100,31.07,US,1697168647
574,presidente epitacio,-21.7633,-52.1156,70.92,81,85,10.2,BR,1697168648
575,anloga,5.7947,0.8973,77.79,85,85,8.19,GH,1697168648
576,akcakale,36.7111,38.9475,69.31,31,0,5.12,TR,1697168649
577,mhamid,29.82,-5.72,70.47,30,6,6.51,MA,1697168649
578,katsuura,35.1333,140.3,70.14,49,0,13.6,JP,1697168650
579,alto araguaia,-17.3147,-53.2153,76.96,65,51,0.45,BR,1697168650
580,inirida,3.8653,-67.9239,77.58,82,59,2.93,CO,1697168651
581,rio grande,-32.035,-52.0986,48.94,62,100,9.15,BR,1697168651
582,aginskoye,51.1,114.53,61.66,35,1,9.98,RU,1697168651
583,berdigestyakh,62.0989,126.6992,28.0,69,96,12.77,RU,1697168652
584,hilo,19.7297,-155.09,80.33,84,40,8.05,US,1697168652
585,visnagar,23.7,72.55,85.95,47,0,3.11,IN,1697168652
586,conception bay south,47.4999,-52.9981,53.92,98,100,8.19,CA,1697168652
587,suamico,44.6319,-88.0393,51.3,78,100,4.0,US,1697168653
588,port saint john's,-31.6229,29.5448,62.24,78,0,4.68,ZA,1697168653
589,yinzhu,35.8786,119.9753,71.15,51,81,5.99,CN,1697168653
590,la foa,-21.7108,165.8276,76.75,60,15,8.52,NC,1697168654
591,boyolangu,-8.1181,111.8935,88.25,52,45,11.5,ID,1697168654
592,kalanchak,46.2562,33.2907,54.03,77,79,7.58,UA,1697168654
593,naze,28.3667,129.4833,79.72,71,45,11.3,JP,1697168655
594,anna regina,7.2644,-58.5077,82.2,77,1,8.28,GY,1697168655
